ListEntry,Name,Grade,hyperlink,NGR,Easting,Northing,lat,lon
1000107,ROUSHAM,I,https://historicengland.org.uk/listing/the-list/list-entry/1000107,"SP 48283 26028, SP 47678 24234, SP4802625124",447679,224233,51.914593222042676,-1.3082246200410805
1000108,HAMPTON COURT,I,https://historicengland.org.uk/listing/the-list/list-entry/1000108,TQ 16570 68051,516570,168051,51.39952387994343,-0.32569236234120397
1000109,HIGHCLERE PARK,I,https://historicengland.org.uk/listing/the-list/list-entry/1000109,SU4498459143,444984,159257,51.33063723321931,-1.3557267216831113
1000110,FARNBOROUGH HALL,I,https://historicengland.org.uk/listing/the-list/list-entry/1000110,SP4274249465,443000,249084,52.138386587720625,-1.3731311299323692
1000111,CHISWICK HOUSE,I,https://historicengland.org.uk/listing/the-list/list-entry/1000111,TQ2083077489,520882,177637,51.484775683605235,-0.2604669833166655
1000112,LEIGH PARK (STAUNTON COUNTRY PARK),II*,https://historicengland.org.uk/listing/the-list/list-entry/1000112,SU 71991 08944,471991,108944,50.875519193821944,-0.9781670875701522
1000113,WREST PARK,I,https://historicengland.org.uk/listing/the-list/list-entry/1000113,TL0958935466,509606,235625,52.008246067828914,-0.4045358385639175
1000114,ENVILLE,II*,https://historicengland.org.uk/listing/the-list/list-entry/1000114,SO 82038 85999,382036,285999,52.47162585419903,-2.2658820053931596
1000115,BIDDULPH GRANGE,I,https://historicengland.org.uk/listing/the-list/list-entry/1000115,SJ8956459115,389647,359145,53.12936609451869,-2.1561806014573275
1000116,KIRBY HALL,II*,https://historicengland.org.uk/listing/the-list/list-entry/1000116,SP 92615 92554,492615,292554,52.5230021425176,-0.6363933541325871
1000117,"MUSEUM GARDENS, YORK",II,https://historicengland.org.uk/listing/the-list/list-entry/1000117,SE 59917 52086,459917,452086,53.961396570875095,-1.0882760032929093
1000118,CASTLE BROMWICH HALL,II*,https://historicengland.org.uk/listing/the-list/list-entry/1000118,SP 14137 89743,414138,289744,52.50541223174396,-1.793140106508748
1000119,OATLANDS,II,https://historicengland.org.uk/listing/the-list/list-entry/1000119,TQ0841765285,508503,165158,51.375119421030924,-0.44249094755818275
1000120,CASTLE HILL,I,https://historicengland.org.uk/listing/the-list/list-entry/1000120,SS 66901 28807,266902,128807,51.04315423444407,-3.8999587872951356
1000121,TITSEY PLACE,II,https://historicengland.org.uk/listing/the-list/list-entry/1000121,TQ 40402 54825,540402,154825,51.27528067210781,0.011475449861142855
1000122,NUNEHAM COURTENAY,I,https://historicengland.org.uk/listing/the-list/list-entry/1000122,SU5421097651,454210,197804,51.6763960696956,-1.2174050325791654
1000123,PAINSWICK HOUSE,II*,https://historicengland.org.uk/listing/the-list/list-entry/1000123,SO 86396 10463,386396,210466,51.79267823592042,-2.198650123365284
1000124,CREWE HALL,II,https://historicengland.org.uk/listing/the-list/list-entry/1000124,SJ7337054317,373275,353572,53.07869874569675,-2.400391460769173
1000125,PAINSHILL PARK,I,https://historicengland.org.uk/listing/the-list/list-entry/1000125,TQ0925760198,509311,160149,51.32994210106363,-0.43242405285045743
1000126,"ROYAL HORTICULTURAL SOCIETY'S GARDENS, WISLEY",II*,https://historicengland.org.uk/listing/the-list/list-entry/1000126,TQ0625858118,506439,158386,51.31463951462252,-0.47415643357636816
1000127,EATON HALL,II*,https://historicengland.org.uk/listing/the-list/list-entry/1000127,SJ3974761954,340639,359400,53.1284434260396,-2.8886006762447893
1000128,STON EASTON PARK,II,https://historicengland.org.uk/listing/the-list/list-entry/1000128,ST 62661 53434,362661,153433,51.2788082532554,-2.536709856939832
1000129,STOKE PARK,II,https://historicengland.org.uk/listing/the-list/list-entry/1000129,ST 61723 77175,361723,177175,51.49221543597862,-2.5527241075012657
1000130,HACKFALL,I,https://historicengland.org.uk/listing/the-list/list-entry/1000130,SE2336377354,423642,477099,54.18911933306155,-1.6391896195139088
1000131,CASTLE TOR,II,https://historicengland.org.uk/listing/the-list/list-entry/1000131,SX 93453 63705,293453,63705,50.463464464103254,-3.5025187288120425
1000132,"THE LONG WALK, KNARESBOROUGH",II,https://historicengland.org.uk/listing/the-list/list-entry/1000132,SE 34749 56544,434749,456544,54.003759409905406,-1.4713372958405129
1000133,FULHAM PALACE,II*,https://historicengland.org.uk/listing/the-list/list-entry/1000133,TQ 24118 76201,524118,176201,51.47116994014388,-0.2143906875866791
1000134,MOUNT EDGCUMBE,I,https://historicengland.org.uk/listing/the-list/list-entry/1000134,"SX4474151992, SX4373049470",244741,51807,50.34566098948973,-4.183462847137947
1000135,BERRY HILL,II,https://historicengland.org.uk/listing/the-list/list-entry/1000135,SU 90718 81599,490718,181599,51.52602780067915,-0.6937250578961697
1000136,"THE MOOT AND MOOT HOUSE, DOWNTON",II*,https://historicengland.org.uk/listing/the-list/list-entry/1000136,SU 18093 21355,418093,121355,50.99131249435655,-1.7435826339512492
1000137,THWAITE HALL,II,https://historicengland.org.uk/listing/the-list/list-entry/1000137,TA 05392 32798,505392,432798,53.780851646827074,-0.402032283920403
1000138,BASING HOUSE,II,https://historicengland.org.uk/listing/the-list/list-entry/1000138,SU6614952644,466236,152607,51.26877614332015,-1.0519647107103536
1000139,THORPE HALL,II*,https://historicengland.org.uk/listing/the-list/list-entry/1000139,TL 17082 98521,517082,298522,52.571927390277956,-0.2738344716307365
1000140,HIGHNAM COURT,II*,https://historicengland.org.uk/listing/the-list/list-entry/1000140,SO 79518 19372,379517,219371,51.87253054456091,-2.298919104526152
1000141,WATCOMBE PARK AND BRUNEL MANOR,II,https://historicengland.org.uk/listing/the-list/list-entry/1000141,SX 91749 67743,291749,67743,50.49945304017982,-3.5276879530537193
1000142,KENWOOD,II*,https://historicengland.org.uk/listing/the-list/list-entry/1000142,TQ 27098 87234,527098,187234,51.56966087061617,-0.16753349518169058
1000143,The Deepdene (including Chart Park),II*,https://historicengland.org.uk/listing/the-list/list-entry/1000143,TQ1749748734,517497,148734,51.225714242623944,-0.3187309426843759
1000144,PRIOR PARK,I,https://historicengland.org.uk/listing/the-list/list-entry/1000144,ST 76205 62918,376205,162918,51.36482284187366,-2.3431718970499857
1000145,ASHBURNHAM PLACE,II*,https://historicengland.org.uk/listing/the-list/list-entry/1000145,TQ 69715 14287,569718,114288,50.9031235433697,0.4123638407388883
1000146,SHEFFIELD PARK,I,https://historicengland.org.uk/listing/the-list/list-entry/1000146,TQ4128823969,541581,124067,50.998584894288726,0.016288728201085647
1000147,CHELSEA PHYSIC GARDEN,I,https://historicengland.org.uk/listing/the-list/list-entry/1000147,TQ 27711 77783,527711,177783,51.484588393664524,-0.16211693310062542
1000148,SYON PARK,I,https://historicengland.org.uk/listing/the-list/list-entry/1000148,TQ 17232 76641,517228,176638,51.47656552407726,-0.3133976961883393
1000149,MARSH COURT,II*,https://historicengland.org.uk/listing/the-list/list-entry/1000149,SU3562333794,435698,133737,51.10182990692682,-1.4915355972087216
1000150,ST PAUL'S WALDEN BURY,I,https://historicengland.org.uk/listing/the-list/list-entry/1000150,TL1877621853,519130,221878,51.882746139010365,-0.2706027604112079
1000151,GODINTON PARK,II*,https://historicengland.org.uk/listing/the-list/list-entry/1000151,TQ 98309 43789,598309,143789,51.15897578794434,0.8346232560277824
1000152,HEVER CASTLE,I,https://historicengland.org.uk/listing/the-list/list-entry/1000152,TQ 48246 45500,548246,145500,51.18950391880981,0.11999450160507898
1000153,PENSHURST PLACE,I,https://historicengland.org.uk/listing/the-list/list-entry/1000153,TQ 53019 44868,553020,144868,51.1825680143238,0.18798809487678259
1000154,BLICKLING HALL,II*,https://historicengland.org.uk/listing/the-list/list-entry/1000154,"TG1719129366, TG1763928250",617030,329119,52.815901779507,1.2191643515006603
1000155,SHRUBLAND HALL,I,https://historicengland.org.uk/listing/the-list/list-entry/1000155,TM1181653099,612274,252889,52.133507924791765,1.1001945104920408
1000156,MUNSTEAD WOOD,I,https://historicengland.org.uk/listing/the-list/list-entry/1000156,SU 98233 42652,498239,142653,51.17468649762668,-0.5960858497146478
1000157,GOODWOOD HOUSE,I,https://historicengland.org.uk/listing/the-list/list-entry/1000157,SU 88732 09606,488732,109605,50.87913723646436,-0.740123929557217
1000158,GRAVETYE MANOR,II*,https://historicengland.org.uk/listing/the-list/list-entry/1000158,TQ3613934129,536175,133504,51.08469890468593,-0.057158851096756384
1000159,LEONARDSLEE,I,https://historicengland.org.uk/listing/the-list/list-entry/1000159,TQ2219626121,522477,125947,51.019862154045526,-0.25518184547893574
1000160,NYMANS,II*,https://historicengland.org.uk/listing/the-list/list-entry/1000160,TQ 26538 29273,526537,129275,51.04889500720524,-0.1961662782944534
1000161,PARHAM,II*,https://historicengland.org.uk/listing/the-list/list-entry/1000161,TQ 06007 14232,506008,114232,50.91782316565227,-0.493302589284391
1000162,PETWORTH HOUSE,I,https://historicengland.org.uk/listing/the-list/list-entry/1000162,SU9662722742,496627,122827,50.99673500354671,-0.6244343062010762
1000163,ROTHERFIELD PARK,II*,https://historicengland.org.uk/listing/the-list/list-entry/1000163,SU6952332663,469624,132314,51.0859265973285,-1.0073340953319105
1000164,CHARLESTON MANOR,II*,https://historicengland.org.uk/listing/the-list/list-entry/1000164,TQ 52018 00662,552018,100662,50.78560705023962,0.1551855023580898
1000165,Bramshill Park,I,https://historicengland.org.uk/listing/the-list/list-entry/1000165,SU7626960141,476801,159656,51.33082377709261,-0.8990404258133349
1000166,BROADLANDS,II*,https://historicengland.org.uk/listing/the-list/list-entry/1000166,SU3560220056,435602,120075,50.97898957106753,-1.4942451727304897
1000167,EXBURY HOUSE,II*,https://historicengland.org.uk/listing/the-list/list-entry/1000167,SU 42174 00183,442174,100183,50.799679762737185,-1.4029261982158274
1000168,HOUGHTON LODGE,II*,https://historicengland.org.uk/listing/the-list/list-entry/1000168,SU 34389 33065,434389,133066,51.09587619564089,-1.510293819384888
1000169,PYLEWELL PARK,II*,https://historicengland.org.uk/listing/the-list/list-entry/1000169,SZ 35275 95456,435273,96011,50.762623982873144,-1.5012447322480569
1000170,ARUNDEL CASTLE,II*,https://historicengland.org.uk/listing/the-list/list-entry/1000170,TQ 01399 09033,501398,109035,50.87193199827737,-0.5603028802463472
1000171,EUSTON PARK,II*,https://historicengland.org.uk/listing/the-list/list-entry/1000171,TL 90660 78516,590657,278521,52.37154911578763,0.7992300451231521
1000172,FANHAMS HALL,II,https://historicengland.org.uk/listing/the-list/list-entry/1000172,TL 37058 15667,537058,215667,51.822822792226994,-0.012750944306654055
1000173,BENHAM PARK,II,https://historicengland.org.uk/listing/the-list/list-entry/1000173,SU4348767848,443925,167334,51.403341135995085,-1.3699302254825534
1000174,GREENWICH PARK,I,https://historicengland.org.uk/listing/the-list/list-entry/1000174,TQ 39063 77268,539066,177270,51.477303066826984,0.0011113923676965305
1000175,HAMPTON COURT HOUSE,II*,https://historicengland.org.uk/listing/the-list/list-entry/1000175,TQ 15292 69025,515292,169025,51.40853896309931,-0.34373912635567444
1000176,TYLNEY HALL,II*,https://historicengland.org.uk/listing/the-list/list-entry/1000176,SU 71447 55561,471447,155561,51.29470526978608,-0.9766933153082995
1000177,BRICKWALL,II*,https://historicengland.org.uk/listing/the-list/list-entry/1000177,TQ 83433 23578,583433,123578,50.982384821560885,0.6118852125111384
1000178,VICTORIA PARK,II*,https://historicengland.org.uk/listing/the-list/list-entry/1000178,TQ3627283847,536013,183734,51.53613145177549,-0.040332062153005666
1000179,SCOTNEY CASTLE,I,https://historicengland.org.uk/listing/the-list/list-entry/1000179,TQ 68621 35296,568621,135297,51.09219659412359,0.40652504478902884
1000180,NORTHBOURNE COURT,II*,https://historicengland.org.uk/listing/the-list/list-entry/1000180,TR 33829 52264,633829,152264,51.22165292364871,1.3472480726151337
1000181,SISSINGHURST CASTLE,I,https://historicengland.org.uk/listing/the-list/list-entry/1000181,TQ 80658 38208,580658,138208,51.114683811136445,0.5796886349139994
1000182,COBHAM HALL,II*,https://historicengland.org.uk/listing/the-list/list-entry/1000182,TQ6782568834,568565,168762,51.39285850883115,0.42146782850259723
1000183,KNOLE,I,https://historicengland.org.uk/listing/the-list/list-entry/1000183,TQ5353553785,554268,153872,51.263135730617904,0.2097016345744573
1000184,LEEDS CASTLE,II*,https://historicengland.org.uk/listing/the-list/list-entry/1000184,TQ8301053699,583554,153307,51.249391227200775,0.6287249198274897
1000185,FELBRIGG HALL,II*,https://historicengland.org.uk/listing/the-list/list-entry/1000185,TG 19583 38051,619582,338051,52.89503265093351,1.2629805208692537
1000186,ICKWORTH HOUSE,II*,https://historicengland.org.uk/listing/the-list/list-entry/1000186,TL8116961556,581169,261597,52.222778803623235,0.6509271043621748
1000187,HEYDON HALL,II*,https://historicengland.org.uk/listing/the-list/list-entry/1000187,TG1245227371,611984,327190,52.80059294281527,1.143158736753277
1000188,SOMERLEYTON PARK,II*,https://historicengland.org.uk/listing/the-list/list-entry/1000188,TM 49230 97685,649230,297685,52.5199987713793,1.6722401907086442
1000189,WAKEHURST PLACE,II*,https://historicengland.org.uk/listing/the-list/list-entry/1000189,TQ 33707 31221,533707,131219,51.0647433242646,-0.09321859420063676
1000190,WEST DEAN,II*,https://historicengland.org.uk/listing/the-list/list-entry/1000190,SU8631211814,486727,111951,50.90053255620989,-0.7680599315619678
1000191,ALTON TOWERS,I,https://historicengland.org.uk/listing/the-list/list-entry/1000191,SK 07909 43048,407909,343048,52.98471500677052,-1.8836426621084306
1000192,HARTWELL HOUSE,II*,https://historicengland.org.uk/listing/the-list/list-entry/1000192,SP 79801 12583,479801,212583,51.806201010198905,-0.8439869029707749
1000193,ROCKBEARE MANOR,II,https://historicengland.org.uk/listing/the-list/list-entry/1000193,SY 02963 94037,302964,94034,50.73778328644931,-3.376492665070224
1000194,WANSTEAD PARK,II*,https://historicengland.org.uk/listing/the-list/list-entry/1000194,TQ4104087270,540989,187461,51.56840155464443,0.032857752752242834
1000195,BENENDEN,II,https://historicengland.org.uk/listing/the-list/list-entry/1000195,TQ 80303 33919,580304,133924,51.07631199288327,0.5724990863881924
1000196,PITTVILLE PARK,II,https://historicengland.org.uk/listing/the-list/list-entry/1000196,SO 95115 23484,395115,223484,51.90986786667854,-2.072419923851081
1000197,HYLANDS PARK,II*,https://historicengland.org.uk/listing/the-list/list-entry/1000197,TL 68438 04206,568438,204208,51.71131837864875,0.43660464342392424
1000198,STOWE,I,https://historicengland.org.uk/listing/the-list/list-entry/1000198,SP 67511 38301,467517,238294,52.038945817834694,-1.0170865441424133
1000199,HAWKSTONE,I,https://historicengland.org.uk/listing/the-list/list-entry/1000199,SJ5936229138,358535,330054,52.866358843779864,-2.6173911258708515
1000200,THE HIGH BEECHES,II*,https://historicengland.org.uk/listing/the-list/list-entry/1000200,TQ 27612 30688,527612,130688,51.061356904833985,-0.18034054760251264
1000201,BELPER CEMETERY,II,https://historicengland.org.uk/listing/the-list/list-entry/1000201,SK 35143 49019,435143,349019,53.03729895302348,-1.4773522885060928
1000202,HORSTED PLACE,II,https://historicengland.org.uk/listing/the-list/list-entry/1000202,TQ 46927 18431,546927,118431,50.94659916702949,0.0901457562341689
1000203,HEATHFIELD PARK,II,https://historicengland.org.uk/listing/the-list/list-entry/1000203,TQ 59317 20876,559317,120875,50.96527113445094,0.2674454197064219
1000204,PRESTON MANOR AND PRESTON PARK,II,https://historicengland.org.uk/listing/the-list/list-entry/1000204,"TQ 30563 06266, TQ3031706108",530565,106269,50.841225756173415,-0.14697335924786634
1000205,"THE ROYAL PAVILION, BRIGHTON",II,https://historicengland.org.uk/listing/the-list/list-entry/1000205,TQ 31244 04227,531244,104227,50.82271931477206,-0.13806548683261938
1000206,HATFIELD PRIORY,II,https://historicengland.org.uk/listing/the-list/list-entry/1000206,TL 79604 10910,579605,210910,51.76805376722043,0.6015208072232301
1000207,"NEW HALL, BOREHAM",II,https://historicengland.org.uk/listing/the-list/list-entry/1000207,TL 73380 10214,573380,210213,51.76375382649028,0.5110526431775326
1000208,COLCHESTER CASTLE PARK,II,https://historicengland.org.uk/listing/the-list/list-entry/1000208,TL 99818 25598,599818,225598,51.89310123515112,0.902545893995129
1000209,LAYER MARNEY TOWER,II,https://historicengland.org.uk/listing/the-list/list-entry/1000209,TL 92836 17538,592836,217538,51.823178405636874,0.7967154378883444
1000210,BLOOMSBURY SQUARE,II,https://historicengland.org.uk/listing/the-list/list-entry/1000210,TQ 30336 81674,530336,181674,51.518957113770554,-0.12289737653134072
1000211,DANSON PARK,II,https://historicengland.org.uk/listing/the-list/list-entry/1000211,"TQ4743874937, TQ4710575029",547105,175031,51.45515335164313,0.11585670878939815
1000212,"CORAM'S FIELDS, with MECKLENBURGH and BRUNSWICK SQUARES",II,https://historicengland.org.uk/listing/the-list/list-entry/1000212,TQ 30496 82277,530496,182277,51.52433912101188,-0.12036956149333106
1000213,RUSSELL SQUARE,II,https://historicengland.org.uk/listing/the-list/list-entry/1000213,TQ3008682021,530107,181974,51.52170584284558,-0.1260853248584026
1000214,STRAWBERRY HILL,II*,https://historicengland.org.uk/listing/the-list/list-entry/1000214,TQ 15871 72275,515871,172275,51.43763136930764,-0.33435650588895677
1000215,EMBLEY PARK,II,https://historicengland.org.uk/listing/the-list/list-entry/1000215,SU 32390 20704,432390,120710,50.98488848610125,-1.5399400553387408
1000216,HURSTBOURNE PARK,II,https://historicengland.org.uk/listing/the-list/list-entry/1000216,SU4415748274,444143,147453,51.22457012831868,-1.3692513582344326
1000217,PISHIOBURY,II,https://historicengland.org.uk/listing/the-list/list-entry/1000217,TL4775414024,547884,213230,51.79816941569224,0.14317629246275962
1000218,TRING PARK,II,https://historicengland.org.uk/listing/the-list/list-entry/1000218,SP9277210619,492917,210682,51.78709068784578,-0.6543166117589783
1000219,CASSIOBURY PARK,II,https://historicengland.org.uk/listing/the-list/list-entry/1000219,TQ 08685 97453,508684,197453,51.66535474851759,-0.42994140923144203
1000220,POLES PARK,II,https://historicengland.org.uk/listing/the-list/list-entry/1000220,TL3511016316,535320,216133,51.827433333261496,-0.03777055530561386
1000221,GREAT MAYTHAM,II,https://historicengland.org.uk/listing/the-list/list-entry/1000221,TQ 84569 30799,584569,130799,51.04688639455324,0.6317219000417075
1000222,WOODVALE CEMETERY,II,https://historicengland.org.uk/listing/the-list/list-entry/1000222,TQ 32601 05688,532601,105688,50.83554137719656,-0.11828293566478768
1000223,SQUERRYES COURT,II,https://historicengland.org.uk/listing/the-list/list-entry/1000223,TQ4418253225,543999,153446,51.261992104670384,0.0624531583965084
1000224,LYNFORD HALL,II,https://historicengland.org.uk/listing/the-list/list-entry/1000224,TL8209593938,581932,293538,52.509369206994585,0.6793926026098365
1000225,DITCHINGHAM HALL,II,https://historicengland.org.uk/listing/the-list/list-entry/1000225,TM 32142 92780,632143,292780,52.48352226296895,1.4174630000525437
1000226,CHILTON HALL,II,https://historicengland.org.uk/listing/the-list/list-entry/1000226,TL8888442765,588940,242794,52.05131849244974,0.7541155901200385
1000227,CHRISTCHURCH MANSION,II,https://historicengland.org.uk/listing/the-list/list-entry/1000227,TM 16419 45285,616419,245285,52.06364136558496,1.1558346522073255
1000228,MELFORD HALL,II*,https://historicengland.org.uk/listing/the-list/list-entry/1000228,TL8675746317,587039,246338,52.08378929213403,0.7283654474912048
1000229,PYRFORD COURT,II,https://historicengland.org.uk/listing/the-list/list-entry/1000229,TQ 03243 57996,503243,157996,51.31172214968925,-0.5201100210860075
1000230,BUCKHURST PARK,II*,https://historicengland.org.uk/listing/the-list/list-entry/1000230,TQ4978934894,550096,134818,51.09303605167942,0.1419998911746456
1000231,HERSTMONCEUX CASTLE AND PLACE,II*,https://historicengland.org.uk/listing/the-list/list-entry/1000231,TQ 64645 10713,564645,110713,50.87247026617356,0.3386711907522984
1000232,NEWICK PARK,II,https://historicengland.org.uk/listing/the-list/list-entry/1000232,TQ 42140 19150,542140,119150,50.9542597821782,0.022328996759021662
1000233,PENNS IN THE ROCKS,II*,https://historicengland.org.uk/listing/the-list/list-entry/1000233,TQ 51784 34667,551784,134667,51.09123532457374,0.1660228572338218
1000234,PLUMPTON PLACE,II*,https://historicengland.org.uk/listing/the-list/list-entry/1000234,TQ 36040 13498,536040,113498,50.904934953368475,-0.06657233899645175
1000235,FIRLE PLACE,II,https://historicengland.org.uk/listing/the-list/list-entry/1000235,TQ 47496 07424,547495,107418,50.84748729835097,0.0937815709956456
1000236,THE HOO,II*,https://historicengland.org.uk/listing/the-list/list-entry/1000236,TQ 58887 02377,558887,102377,50.799177208783036,0.2532926586398262
1000237,St Osyth's Priory,II,https://historicengland.org.uk/listing/the-list/list-entry/1000237,TM 11838 16414,611837,216413,51.80620415865691,1.0713311228219609
1000238,BRIDGE END GARDENS,II*,https://historicengland.org.uk/listing/the-list/list-entry/1000238,TL 53651 38757,553651,238757,52.02595074132656,0.2381169700317513
1000239,RIFFHAMS,II,https://historicengland.org.uk/listing/the-list/list-entry/1000239,TL 77181 06038,577181,206039,51.72507386155228,0.5639498404287854
1000240,SPAINS HALL,II*,https://historicengland.org.uk/listing/the-list/list-entry/1000240,"TL 68011 33827, TL6766033951",568011,233827,51.97750758802563,0.44480770074806675
1000241,LANGLEYS,II,https://historicengland.org.uk/listing/the-list/list-entry/1000241,TL 69946 13586,569944,213587,51.79511403372781,0.4629619439545249
1000242,LADBROKE ESTATE,II,https://historicengland.org.uk/listing/the-list/list-entry/1000242,"TQ 24838 80619, TQ 24664 80546, TQ 24589 80506, TQ 24511 80611, TQ 24414 80574, TQ 24366 80713, TQ 24412 80894, TQ 24564 80685, TQ 24480 80826, TQ 24337 80975, TQ 24565 80997, TQ 24711 80838, TQ 24792 80758, TQ 24473 80456, TQ 24607 80903, TQ 24648 80757",524838,180619,51.51071650209654,-0.2024688794592857
1000243,MYDDELTON HOUSE,II,https://historicengland.org.uk/listing/the-list/list-entry/1000243,TQ 34142 99219,534142,199219,51.675729504093276,-0.061373304237285646
1000244,THE HILL (INVERFORTH HOUSE),II*,https://historicengland.org.uk/listing/the-list/list-entry/1000244,TQ 26060 86732,526060,186732,51.565382280777364,-0.18268226439505747
1000245,BEDFORD SQUARE,II*,https://historicengland.org.uk/listing/the-list/list-entry/1000245,TQ 29840 81662,529840,181662,51.518963395125155,-0.13004639671156115
1000246,REGENT'S PARK,I,https://historicengland.org.uk/listing/the-list/list-entry/1000246,"TQ 27987 82893, TQ2868582116",527987,182893,51.53044860068392,-0.1562913769954199
1000247,HALL PLACE,II,https://historicengland.org.uk/listing/the-list/list-entry/1000247,TQ 50240 74176,550240,174176,51.44664852651398,0.16058112696227514
1000248,BROMPTON CEMETERY,I,https://historicengland.org.uk/listing/the-list/list-entry/1000248,TQ 25719 77766,525719,177766,51.48488150521977,-0.19079596502758434
1000249,WARBROOK HOUSE,II*,https://historicengland.org.uk/listing/the-list/list-entry/1000249,SU7691961766,477297,161659,51.34876369714499,-0.891488433900668
1000250,ELVETHAM HALL,II,https://historicengland.org.uk/listing/the-list/list-entry/1000250,SU 77868 56619,477868,156619,51.30337613160925,-0.8843909250121356
1000251,MOOR PARK,II*,https://historicengland.org.uk/listing/the-list/list-entry/1000251,TQ 07336 93265,507336,193263,51.627954082910435,-0.4507085852023552
1000252,WORMLEYBURY,II,https://historicengland.org.uk/listing/the-list/list-entry/1000252,TL3540805714,535162,205970,51.73614910388645,-0.044015811948296825
1000253,YOUNGSBURY,II*,https://historicengland.org.uk/listing/the-list/list-entry/1000253,TL3649118069,536577,217797,51.84207973350574,-0.018885712519069963
1000254,WROTHAM PARK,II,https://historicengland.org.uk/listing/the-list/list-entry/1000254,TQ2448998979,524672,198830,51.67441335122031,-0.19839594740702657
1000255,KNEBWORTH,II*,https://historicengland.org.uk/listing/the-list/list-entry/1000255,TL 22786 20802,522786,220802,51.87228432616076,-0.2178955686462035
1000256,MOUNT EPHRAIM,II,https://historicengland.org.uk/listing/the-list/list-entry/1000256,TR 06540 60057,606542,160056,51.30214149783867,0.9615672616082097
1000257,BAYHAM ABBEY,II,https://historicengland.org.uk/listing/the-list/list-entry/1000257,TQ 64079 36608,564080,136609,51.10530044690473,0.3423343165387877
1000258,CHEVENING,II*,https://historicengland.org.uk/listing/the-list/list-entry/1000258,TQ4775458038,548251,157812,51.300134352224475,0.12515992429986325
1000259,WALDERSHARE PARK,II,https://historicengland.org.uk/listing/the-list/list-entry/1000259,TR 28725 47862,628725,147862,51.18420121290206,1.271480456123762
1000260,GOODNESTONE PARK,II*,https://historicengland.org.uk/listing/the-list/list-entry/1000260,TR 25473 54136,625473,154136,51.241817799146965,1.2289676171633197
1000261,CHILHAM CASTLE,II*,https://historicengland.org.uk/listing/the-list/list-entry/1000261,TR0622052790,606418,152876,51.23771125965369,0.9556486194859176
1000262,SANDLING PARK,II,https://historicengland.org.uk/listing/the-list/list-entry/1000262,TR 13805 36367,613805,136367,51.08675589334075,1.0515077485237525
1000263,CHARTWELL,II*,https://historicengland.org.uk/listing/the-list/list-entry/1000263,TQ 45631 51776,545631,151776,51.246571459397366,0.08514785422283787
1000264,Linton Park,II*,https://historicengland.org.uk/listing/the-list/list-entry/1000264,TQ7587649911,575874,149912,51.22131154702737,0.5171306487530373
1000265,ERIDGE PARK,II*,https://historicengland.org.uk/listing/the-list/list-entry/1000265,TQ 57533 34287,557533,134287,51.086272019886906,0.24788373303993616
1000266,CALVERLEY PARK AND CALVERLEY GROUNDS,II,https://historicengland.org.uk/listing/the-list/list-entry/1000266,TQ 58820 39298,558820,139298,51.13094138161006,0.2684480272738778
1000267,STONEWALL PARK,II,https://historicengland.org.uk/listing/the-list/list-entry/1000267,TQ 50430 42374,550430,142374,51.16084467345966,0.14991663333346417
1000268,LEXHAM HALL,II,https://historicengland.org.uk/listing/the-list/list-entry/1000268,TF8670317531,586674,317147,52.7197610247627,0.7625001856313695
1000269,CATTON HALL,II*,https://historicengland.org.uk/listing/the-list/list-entry/1000269,TG2291311811,623222,311723,52.65725408888669,1.299065753171998
1000270,HELMINGHAM HALL,I,https://historicengland.org.uk/listing/the-list/list-entry/1000270,TM 18220 57658,618218,257659,52.174012754329986,1.1899626837856112
1000271,CHANTRY PARK,II,https://historicengland.org.uk/listing/the-list/list-entry/1000271,TM1381144049,613815,243978,52.052918372083205,1.1170896586012395
1000272,GREATHED MANOR,II,https://historicengland.org.uk/listing/the-list/list-entry/1000272,TQ4134542033,541334,142063,51.16036736769227,0.019802233729472575
1000273,BIGNOR PARK,II,https://historicengland.org.uk/listing/the-list/list-entry/1000273,SU9902115851,499121,115672,50.93199096070135,-0.5908532135480272
1000274,BORDE HILL,II*,https://historicengland.org.uk/listing/the-list/list-entry/1000274,TQ 31891 26412,531891,126412,51.0219609674744,-0.12086899559718636
1000275,HEASELANDS,II,https://historicengland.org.uk/listing/the-list/list-entry/1000275,TQ 31140 22799,531140,122799,50.989660955827624,-0.13287491651163694
1000276,HOPE END,II,https://historicengland.org.uk/listing/the-list/list-entry/1000276,SO 72508 40578,372506,240579,52.062898557039794,-2.402456184586449
1000277,"THE MANOR HOUSE, UPTON GREY",II*,https://historicengland.org.uk/listing/the-list/list-entry/1000277,SU 69779 48497,469779,148496,51.23139417911182,-1.0019880446794343
1000278,COMPTON END,II*,https://historicengland.org.uk/listing/the-list/list-entry/1000278,SU 46249 25864,446248,125863,51.030278600031444,-1.3418733141487507
1000279,LITTLEWORTH CROSS (FORMERLY HETHERSETT),II,https://historicengland.org.uk/listing/the-list/list-entry/1000279,SU 89767 45698,489767,145698,51.20345116498747,-0.7164823567336207
1000280,CADLAND HOUSE,II*,https://historicengland.org.uk/listing/the-list/list-entry/1000280,SZ 46890 99805,446891,99808,50.795946198813354,-1.3360451940942832
1000281,BUSHY PARK,I,https://historicengland.org.uk/listing/the-list/list-entry/1000281,TQ 15837 69642,515837,169642,51.41397348985306,-0.3357053993977208
1000282,HAM HOUSE,II*,https://historicengland.org.uk/listing/the-list/list-entry/1000282,TQ 17390 72752,517390,172752,51.441606071222964,-0.3123548023039381
1000283,BATTERSEA PARK,II*,https://historicengland.org.uk/listing/the-list/list-entry/1000283,TQ 28049 77164,528049,177164,51.47894918695761,-0.1574760319805205
1000284,"MONUMENT GROUNDS, SHEFFIELD",II,https://historicengland.org.uk/listing/the-list/list-entry/1000284,SK 36130 86707,436130,386707,53.37599018264915,-1.4583810062722984
1000285,WANDSWORTH PARK,II,https://historicengland.org.uk/listing/the-list/list-entry/1000285,TQ 24853 75245,524853,175245,51.4624167304701,-0.20415138246887102
1000286,CITY OF LONDON CEMETERY,I,https://historicengland.org.uk/listing/the-list/list-entry/1000286,TQ 42257 86441,542257,186441,51.55891805501046,0.050728028467438686
1000287,OSTERLEY PARK,II*,https://historicengland.org.uk/listing/the-list/list-entry/1000287,TQ 14414 78372,514414,178372,51.4927258560503,-0.3533376613240932
1000288,FOOTS CRAY PLACE,II,https://historicengland.org.uk/listing/the-list/list-entry/1000288,TQ4740971818,547881,171667,51.42472461407268,0.12561325721373487
1000289,Lamorbey Park,II,https://historicengland.org.uk/listing/the-list/list-entry/1000289,TQ4669873240,546698,173227,51.43904912076402,0.10925593159945593
1000290,GODMERSHAM PARK,II*,https://historicengland.org.uk/listing/the-list/list-entry/1000290,TR 05674 51238,605675,151237,51.22326115215583,0.9440798553996926
1000291,WALMER CASTLE,II,https://historicengland.org.uk/listing/the-list/list-entry/1000291,TR 37579 50111,637579,150111,51.20078049944914,1.3994259280135712
1000292,RAINTHORPE HALL,II,https://historicengland.org.uk/listing/the-list/list-entry/1000292,TM 20255 97315,620255,297318,52.52917688322708,1.2456969885399143
1000293,BELMONT PARK,II,https://historicengland.org.uk/listing/the-list/list-entry/1000293,TQ9831256532,598489,156354,51.271757731200815,0.8441429204545969
1000294,RIVERHILL HOUSE,II,https://historicengland.org.uk/listing/the-list/list-entry/1000294,TQ 54271 51922,554272,151921,51.24560461483507,0.2089184645872828
1000295,OLANTIGH TOWERS,II,https://historicengland.org.uk/listing/the-list/list-entry/1000295,TR 06061 48093,606061,148093,51.19488894804583,0.9477954925100596
1000296,"THE GRANGE, NORTHINGTON",II*,https://historicengland.org.uk/listing/the-list/list-entry/1000296,SU5561836505,455952,136266,51.122953706450396,-1.2018992027815212
1000297,DOGMERSFIELD PARK,II,https://historicengland.org.uk/listing/the-list/list-entry/1000297,SU 76902 51801,476902,151800,51.26018379002088,-0.8992809768953739
1000298,HALE PARK,II*,https://historicengland.org.uk/listing/the-list/list-entry/1000298,SU1791018737,418363,118535,50.96594605633132,-1.739877258326473
1000299,ALBURY PARK,I,https://historicengland.org.uk/listing/the-list/list-entry/1000299,TQ 06407 47654,506407,147655,51.21818837186391,-0.47780532853512575
1000300,POLESDEN LACEY,II*,https://historicengland.org.uk/listing/the-list/list-entry/1000300,TQ1398152424,513951,152331,51.258763059704165,-0.3683465555478454
1000301,BUSBRIDGE LAKES,II*,https://historicengland.org.uk/listing/the-list/list-entry/1000301,SU9756042420,497382,142163,51.170428151686394,-0.6084737947846302
1000302,VANN,II*,https://historicengland.org.uk/listing/the-list/list-entry/1000302,SU 98337 37474,498336,137475,51.128123255900846,-0.5961117392684911
1000303,GREAT FOSTERS,II*,https://historicengland.org.uk/listing/the-list/list-entry/1000303,TQ 01405 69844,501405,169844,51.418551224771704,-0.5430960954399406
1000304,HOLLYCOMBE HOUSE,II*,https://historicengland.org.uk/listing/the-list/list-entry/1000304,"SU 84995 29278, SU 84879 28636",484995,129278,51.05656409917064,-0.7886380980058959
1000305,KIDBROOKE PARK,II,https://historicengland.org.uk/listing/the-list/list-entry/1000305,TQ 41836 34124,541839,134123,51.08889031793943,0.023897947216288313
1000306,HAMMERWOOD PARK,II,https://historicengland.org.uk/listing/the-list/list-entry/1000306,TQ 43971 38534,543968,138535,51.128007826113645,0.056035332271725906
1000307,GLYNDE PLACE,II*,https://historicengland.org.uk/listing/the-list/list-entry/1000307,"TQ4571209812, TQ4552609221",545753,109565,50.86722263975346,0.069908176136757455
1000308,BUXTED PARK,II*,https://historicengland.org.uk/listing/the-list/list-entry/1000308,TQ4795522945,548587,122864,50.98600970908504,0.11556805524254715
1000309,BATTLE ABBEY,II,https://historicengland.org.uk/listing/the-list/list-entry/1000309,TQ 74769 15398,574770,115396,50.91157184382293,0.4846725122843579
1000310,MAGDALEN HILL CEMETERY,II,https://historicengland.org.uk/listing/the-list/list-entry/1000310,SU 51247 29288,451247,129288,51.060651267550185,-1.2701092275871844
1000311,BLAKE HALL,II,https://historicengland.org.uk/listing/the-list/list-entry/1000311,TL 53961 05085,553960,205086,51.7233635005371,0.2276136172705552
1000312,AUDLEY END,I,https://historicengland.org.uk/listing/the-list/list-entry/1000312,TL 52292 37889,552293,237887,52.01850888804733,0.2179528901027413
1000313,GOSFIELD HALL,II,https://historicengland.org.uk/listing/the-list/list-entry/1000313,TL7676829599,577310,229550,51.93620634838003,0.577850230970368
1000314,THORNDON HALL,II*,https://historicengland.org.uk/listing/the-list/list-entry/1000314,TQ6097691816,561955,191254,51.596850723273604,0.3368595204510984
1000315,HILL HALL,II,https://historicengland.org.uk/listing/the-list/list-entry/1000315,TQ4866699477,548872,199628,51.67569712978591,0.15167931843111082
1000316,STANSTEAD BURY,II,https://historicengland.org.uk/listing/the-list/list-entry/1000316,TL 40314 11249,540313,211250,51.782327457370535,0.032659878820752414
1000317,WOODHALL PARK,II*,https://historicengland.org.uk/listing/the-list/list-entry/1000317,TL 31671 18545,531673,218546,51.849987058600504,-0.08974257533008632
1000318,HUGHENDEN MANOR,II,https://historicengland.org.uk/listing/the-list/list-entry/1000318,"SU 85655 94619, SU8618595249",485845,195655,51.653141167720754,-0.7605160394956942
1000319,MENTMORE TOWERS,II*,https://historicengland.org.uk/listing/the-list/list-entry/1000319,SP 90480 19125,490480,219126,51.86338939323374,-0.6874335078019146
1000320,INTWOOD HALL,II*,https://historicengland.org.uk/listing/the-list/list-entry/1000320,TG 19424 04033,619426,304034,52.58979052100072,1.2379359126425948
1000321,PAMPISFORD HALL,II*,https://historicengland.org.uk/listing/the-list/list-entry/1000321,TL 50878 48429,550877,248426,52.11357735746386,0.20198752572293832
1000322,FONTHILL,II*,https://historicengland.org.uk/listing/the-list/list-entry/1000322,ST9160631687,392594,130710,51.07566589295723,-2.107090055905068
1000323,CLIVEDEN,I,https://historicengland.org.uk/listing/the-list/list-entry/1000323,SU9100085080,490998,184473,51.55181733674769,-0.6889480472704317
1000324,CLAREMONT,I,https://historicengland.org.uk/listing/the-list/list-entry/1000324,TQ1333363470,513333,163347,51.35789949927707,-0.3737029282230471
1000325,FRANKS HALL,II,https://historicengland.org.uk/listing/the-list/list-entry/1000325,TQ5579667453,555651,167523,51.38541302886341,0.2354648116574406
1000326,STONEHURST,II,https://historicengland.org.uk/listing/the-list/list-entry/1000326,TQ 34807 31857,534807,131857,51.07022005012113,-0.0772921193371214
1000327,STANSTED PARK,II*,https://historicengland.org.uk/listing/the-list/list-entry/1000327,SU 75266 11137,475266,111136,50.89481053529075,-0.9311774408181788
1000328,INKPEN HOUSE,II*,https://historicengland.org.uk/listing/the-list/list-entry/1000328,SU 35823 63696,435824,163697,51.37120777599765,-1.4867490046090148
1000329,BREAMORE,II,https://historicengland.org.uk/listing/the-list/list-entry/1000329,SU 15099 19105,415099,119105,50.971165776155445,-1.7863339188800722
1000330,Ashridge Estate,II*,https://historicengland.org.uk/listing/the-list/list-entry/1000330,SP9939112329,499391,212302,51.80054025549882,-0.5600255266615235
1000331,GUNTON PARK,II*,https://historicengland.org.uk/listing/the-list/list-entry/1000331,TG 23168 33924,623168,333924,52.856520590677,1.3133686936935065
1000332,HACKWOOD PARK,I,https://historicengland.org.uk/listing/the-list/list-entry/1000332,SU 65435 49591,465433,149589,51.24173499190301,-1.0640241416687233
1000333,SANDLEFORD PRIORY,II,https://historicengland.org.uk/listing/the-list/list-entry/1000333,"SU4783664509, SU4743264564",447871,164518,51.37770398323983,-1.3135862107153304
1000334,HALL BARN,II*,https://historicengland.org.uk/listing/the-list/list-entry/1000334,"SU9360189207, SU9429789783",494064,188922,51.591306454229226,-0.6435511715195125
1000335,KINGS WESTON HOUSE,II,https://historicengland.org.uk/listing/the-list/list-entry/1000335,"ST 53910 77691, ST 54161 77252",354162,177252,51.49234373909147,-2.661633719306578
1000336,BOWOOD,I,https://historicengland.org.uk/listing/the-list/list-entry/1000336,ST 97561 69689,397561,169689,51.42620269435396,-2.0364693338401203
1000337,NARFORD HALL,II,https://historicengland.org.uk/listing/the-list/list-entry/1000337,TF 76605 12832,576605,312832,52.6843886051211,0.6112747433126522
1000338,BICTON,I,https://historicengland.org.uk/listing/the-list/list-entry/1000338,"SY 07035 85422, SY 06824 86308",306823,86310,50.66897493001653,-3.319869876436851
1000339,BOUGHTON MONCHELSEA PLACE,II,https://historicengland.org.uk/listing/the-list/list-entry/1000339,TQ 77339 49870,577339,149870,51.22048142237436,0.5380666875028453
1000340,KENSINGTON GARDENS,I,https://historicengland.org.uk/listing/the-list/list-entry/1000340,TQ 26342 80148,526342,180148,51.506149693321085,-0.18097641393265318
1000341,FAULKBOURNE HALL,II,https://historicengland.org.uk/listing/the-list/list-entry/1000341,TL 80382 16480,580382,216480,51.8178319520742,0.6156630338703647
1000342,WOBURN FARM,II,https://historicengland.org.uk/listing/the-list/list-entry/1000342,TQ0549865709,505768,165535,51.37902361428924,-0.4816584372490149
1000343,HATFIELD HOUSE,I,https://historicengland.org.uk/listing/the-list/list-entry/1000343,TL 24018 07769,524017,207769,51.7548905197932,-0.20468508279193398
1000344,WOLLATON HALL,II*,https://historicengland.org.uk/listing/the-list/list-entry/1000344,SK5289839158,453390,339210,52.94762651752107,-1.2068694180362065
1000345,TREBAH,II,https://historicengland.org.uk/listing/the-list/list-entry/1000345,SW 76889 27346,176889,27345,50.10419190457542,-5.1214321285296025
1000346,ELTON HALL,II*,https://historicengland.org.uk/listing/the-list/list-entry/1000346,TL0874292967,508742,292967,52.52373762607208,-0.3986586409806462
1000347,UPPARK,II*,https://historicengland.org.uk/listing/the-list/list-entry/1000347,SU7847017201,478470,117430,50.95097188384879,-0.8842769809385996
1000348,BROCKHURST,II*,https://historicengland.org.uk/listing/the-list/list-entry/1000348,TQ 40667 37310,540667,137310,51.117818830453324,0.008415362074757493
1000349,PITSHILL AND THE MANOR OF DEAN,II,https://historicengland.org.uk/listing/the-list/list-entry/1000349,"SU 94738 22770, SU9473822542",494738,122771,50.99654529885184,-0.651359190888744
1000350,BOCONNOC,II*,https://historicengland.org.uk/listing/the-list/list-entry/1000350,SX1383260490,215138,59470,50.40595237204206,-4.602870740132647
1000351,GRAY'S INN,II*,https://historicengland.org.uk/listing/the-list/list-entry/1000351,TQ 30967 81825,530967,181825,51.52016827318029,-0.1137521759657514
1000352,HAGLEY HALL,I,https://historicengland.org.uk/listing/the-list/list-entry/1000352,"SO 92181 81529, SO 92347 80823",392346,280822,52.42532876875659,-2.113985287572194
1000353,"ROYAL HOSPITAL, CHELSEA and RANELAGH GARDENS",II,https://historicengland.org.uk/listing/the-list/list-entry/1000353,TQ 28091 78055,528091,178055,51.486946955830454,-0.15654868920977194
1000354,BOREHAM HOUSE,II,https://historicengland.org.uk/listing/the-list/list-entry/1000354,TL 74597 09101,574599,209098,51.753360106366124,0.5281390628772904
1000355,CHATSWORTH HOUSE,I,https://historicengland.org.uk/listing/the-list/list-entry/1000355,SK 25318 69986,425318,369986,53.22631963248214,-1.6222230879448796
1000356,WARMLEY HOUSE,II,https://historicengland.org.uk/listing/the-list/list-entry/1000356,ST 66882 72998,366882,172998,51.4549860282545,-2.478025257613409
1000357,LINDRIDGE,II,https://historicengland.org.uk/listing/the-list/list-entry/1000357,SX8936775604,289031,75212,50.56608710884027,-3.5682217274903842
1000358,DOWN HOUSE,II,https://historicengland.org.uk/listing/the-list/list-entry/1000358,TQ 43074 60729,543074,160729,51.32766997219041,0.05212125740273716
1000359,BURGHLEY HOUSE,II*,https://historicengland.org.uk/listing/the-list/list-entry/1000359,TF 04601 05443,504600,305443,52.63666369466211,-0.45574902477458806
1000360,ROYAL VICTORIA PARK (FORMERLY BRENTRY HOUSE),II,https://historicengland.org.uk/listing/the-list/list-entry/1000360,ST5752478613,357524,178613,51.50484369126184,-2.613375509749897
1000361,THORESBY PARK,I,https://historicengland.org.uk/listing/the-list/list-entry/1000361,SK6360371536,463603,371171,53.233774419654246,-1.0485818502316169
1000362,HONING HALL,II*,https://historicengland.org.uk/listing/the-list/list-entry/1000362,TG3263028684,632583,328798,52.806543568030484,1.449293417906352
1000363,STOKE PARK,II,https://historicengland.org.uk/listing/the-list/list-entry/1000363,SU9670082846,497123,182700,51.534860483957026,-0.6011245844180708
1000364,WOBURN ABBEY,I,https://historicengland.org.uk/listing/the-list/list-entry/1000364,SP 96448 33227,496447,233222,51.989087631480935,-0.5968613064683951
1000365,COMBE BANK,II*,https://historicengland.org.uk/listing/the-list/list-entry/1000365,TQ 47874 55791,547874,155791,51.282072360459985,0.11891987603428518
1000366,ROTHERFIELD HALL,II*,https://historicengland.org.uk/listing/the-list/list-entry/1000366,TQ 54274 28981,554274,128981,51.0394799553809,0.19912791637301078
1000367,SHIREOAKS HALL,II*,https://historicengland.org.uk/listing/the-list/list-entry/1000367,SK 54567 80255,454567,380255,53.31642314149377,-1.1823834851652266
1000368,CAMPSEY ASHE PARK,II*,https://historicengland.org.uk/listing/the-list/list-entry/1000368,TM3429855595,634469,255515,52.14811222024341,1.425705681570174
1000369,COMPTON VERNEY,II*,https://historicengland.org.uk/listing/the-list/list-entry/1000369,SP3100352592,431003,252746,52.172109613448754,-1.5480823942705049
1000370,LATIMER PARK,II,https://historicengland.org.uk/listing/the-list/list-entry/1000370,SU 99484 98861,499484,198862,51.67972159816572,-0.5625157504634971
1000371,WIVENHOE PARK,II,https://historicengland.org.uk/listing/the-list/list-entry/1000371,TM 03226 24103,603226,224103,51.87844659657954,0.9511240538760308
1000372,WYNYARD PARK,II*,https://historicengland.org.uk/listing/the-list/list-entry/1000372,NZ4116326111,441566,525869,54.62625483109101,-1.357713453993838
1000373,CRYSTAL PALACE PARK,II*,https://historicengland.org.uk/listing/the-list/list-entry/1000373,TQ 34298 70925,534298,170925,51.421435160908935,-0.0699096170025986
1000374,SCAMPSTON HALL,II*,https://historicengland.org.uk/listing/the-list/list-entry/1000374,SE8642775044,486427,475315,54.166369427637136,-0.6777162473941342
1000375,BOUGHTON HOUSE,I,https://historicengland.org.uk/listing/the-list/list-entry/1000375,SP8987579208,489875,279208,52.403511970499515,-0.6803573072649837
1000376,"THE OFFICERS' TERRACE, THE HISTORIC DOCKYARD, CHATHAM",II,https://historicengland.org.uk/listing/the-list/list-entry/1000376,TQ 76009 69139,576009,169139,51.393986719067186,0.528540827267996
1000377,STONELEIGH ABBEY,II*,https://historicengland.org.uk/listing/the-list/list-entry/1000377,"SP3345571996, SP 31474 70826",431473,270826,52.334622587778995,-1.5395311298838472
1000378,AMPTHILL PARK,II,https://historicengland.org.uk/listing/the-list/list-entry/1000378,TL 02717 38816,502717,238815,52.03823260198255,-0.5039087510302741
1000379,GARENDON,II,https://historicengland.org.uk/listing/the-list/list-entry/1000379,SK 49973 19319,449973,319319,52.76916205422884,-1.2607615807053854
1000380,BURLEY ON THE HILL,II,https://historicengland.org.uk/listing/the-list/list-entry/1000380,"SK8903609483, SK8858708586",488992,310195,52.68215198217768,-0.6850374223952433
1000381,SOMERHILL,II,https://historicengland.org.uk/listing/the-list/list-entry/1000381,TQ 60720 44785,560720,144785,51.17971120411908,0.29802782281606754
1000382,ORCHARDLEIGH,II*,https://historicengland.org.uk/listing/the-list/list-entry/1000382,ST7710651503,377471,151246,51.25992467164809,-2.3242465686691967
1000383,FLITWICK MANOR,II,https://historicengland.org.uk/listing/the-list/list-entry/1000383,TL 02961 33974,502961,233974,51.994678476693615,-0.5018069082928235
1000384,COPPED HALL,II*,https://historicengland.org.uk/listing/the-list/list-entry/1000384,"TL4287700910, TL4319201349",543192,201052,51.68996759522245,0.07017418136296244
1000385,CASTLE ASHBY,I,https://historicengland.org.uk/listing/the-list/list-entry/1000385,SP8576157901,485761,257901,52.21266271673139,-0.7462340596732167
1000386,WARWICK CASTLE,I,https://historicengland.org.uk/listing/the-list/list-entry/1000386,SP 28540 63341,428539,263341,52.267492348372315,-1.5832204989431324
1000387,SALING HALL,II,https://historicengland.org.uk/listing/the-list/list-entry/1000387,TL 69945 25933,569945,225933,51.90601279100611,0.4690404530631819
1000388,LEES COURT,II,https://historicengland.org.uk/listing/the-list/list-entry/1000388,TR 02338 54936,602338,154936,51.25767112630812,0.8984452574681203
1000389,Weston Park,II*,https://historicengland.org.uk/listing/the-list/list-entry/1000389,SJ8094809730,380948,309964,52.687026812216594,-2.2832851955220446
1000390,FAWLEY COURT AND TEMPLE ISLAND,II*,https://historicengland.org.uk/listing/the-list/list-entry/1000390,"SU 76497 84011, SU7711984813",476498,184016,51.549858524420486,-0.8981323230455861
1000391,WOTTON HOUSE,II*,https://historicengland.org.uk/listing/the-list/list-entry/1000391,TQ1219046865,512190,146964,51.21087153365686,-0.39525195846724465
1000392,GREAT HARROWDEN HALL,II*,https://historicengland.org.uk/listing/the-list/list-entry/1000392,SP8849671141,488499,271139,52.33121319769962,-0.7027034639411331
1000393,OLDBURY COURT,II,https://historicengland.org.uk/listing/the-list/list-entry/1000393,ST 63448 76911,363448,176911,51.48995629456012,-2.5278513732442898
1000394,TORTWORTH COURT,II*,https://historicengland.org.uk/listing/the-list/list-entry/1000394,ST 69376 91740,369376,191740,51.62363877149648,-2.443769599719104
1000395,GROVELANDS PARK,II*,https://historicengland.org.uk/listing/the-list/list-entry/1000395,TQ 30527 94308,530527,194308,51.632448392513815,-0.11545573902555065
1000396,SWAFFHAM PRIOR HOUSE,II,https://historicengland.org.uk/listing/the-list/list-entry/1000396,TL 56161 63947,556161,263947,52.25154118128633,0.2862313470582361
1000397,WILBRAHAM TEMPLE,II,https://historicengland.org.uk/listing/the-list/list-entry/1000397,TL 55363 57910,555363,257910,52.1975348781196,0.2717807815391214
1000398,DODDINGTON PLACE,II,https://historicengland.org.uk/listing/the-list/list-entry/1000398,TQ 94430 57494,594430,157494,51.28339450670168,0.7866476980680485
1000399,CHIDDINGSTONE CASTLE,II,https://historicengland.org.uk/listing/the-list/list-entry/1000399,TQ 49868 45083,549868,145083,51.18533424416958,0.14301390488052357
1000400,MARBLE HILL,II*,https://historicengland.org.uk/listing/the-list/list-entry/1000400,TQ 17353 73651,517353,173651,51.449693624337414,-0.3125891127712491
1000401,RIPLEY CASTLE,II,https://historicengland.org.uk/listing/the-list/list-entry/1000401,SE 27739 60832,427738,460834,54.04273780267753,-1.5779079418746176
1000402,ALLERTON PARK,II,https://historicengland.org.uk/listing/the-list/list-entry/1000402,SE 41202 58432,441202,458432,54.02025400404604,-1.3726372028757505
1000403,RUDDING PARK,II,https://historicengland.org.uk/listing/the-list/list-entry/1000403,SE3344352753,433499,453087,53.972772580170876,-1.4907861930033077
1000404,ELVASTON CASTLE,II*,https://historicengland.org.uk/listing/the-list/list-entry/1000404,SK 41482 32897,441482,332897,52.89193049097869,-1.3848819637623089
1000405,Ightham Court,II,https://historicengland.org.uk/listing/the-list/list-entry/1000405,TQ5946457632,559616,157486,51.294135077924025,0.2879018078546448
1000406,TENDRING HALL PARK,II,https://historicengland.org.uk/listing/the-list/list-entry/1000406,TL9900635712,599393,235612,51.98317172632319,0.9021783229810041
1000407,LEIGH COURT,II,https://historicengland.org.uk/listing/the-list/list-entry/1000407,ST 54319 74811,354320,174811,51.47040978129032,-2.659041540379621
1000408,COMBE ABBEY,II*,https://historicengland.org.uk/listing/the-list/list-entry/1000408,SP 40102 79655,440102,279655,52.41343109738367,-1.4118470283192768
1000409,REDLEAF,II,https://historicengland.org.uk/listing/the-list/list-entry/1000409,TQ 52071 45316,552071,145316,51.18684652400181,0.17461005033339894
1000410,STUDLEY ROYAL,I,https://historicengland.org.uk/listing/the-list/list-entry/1000410,"SE2782269495, SE2760767054",428631,468706,54.113437011809474,-1.5635303431492573
1000411,BARWICK PARK,II*,https://historicengland.org.uk/listing/the-list/list-entry/1000411,"ST 55946 12980, ST5616514375",355911,114375,50.92713324157528,-2.6286942539688156
1000412,CUSWORTH HALL,II,https://historicengland.org.uk/listing/the-list/list-entry/1000412,SE 54509 03678,454509,403678,53.52694579744956,-1.1792107962330238
1000413,OULTON HALL,II,https://historicengland.org.uk/listing/the-list/list-entry/1000413,SE3558827703,435594,427714,53.744594123858334,-1.4617817155356034
1000414,BEARWOOD COLLEGE,II*,https://historicengland.org.uk/listing/the-list/list-entry/1000414,SU 77598 68769,477599,168772,51.412668104114495,-0.8856013487391005
1000415,Wentworth Castle Gardens,I,https://historicengland.org.uk/listing/the-list/list-entry/1000415,SE3238602559,432300,402992,53.522609541651995,-1.5142826181181777
1000416,DULWICH PARK,II,https://historicengland.org.uk/listing/the-list/list-entry/1000416,TQ 33615 73600,533615,173600,51.44563533714422,-0.07871829688922817
1000417,GORHAMBURY,II,https://historicengland.org.uk/listing/the-list/list-entry/1000417,"TL 12324 07297, TL1087608076",511321,207678,51.75673716734897,-0.38856663456339874
1000418,WORTLEY HALL,II,https://historicengland.org.uk/listing/the-list/list-entry/1000418,SK 31771 99643,431771,399643,53.49254058358045,-1.5225994979243804
1000419,GROVE HOUSE,II,https://historicengland.org.uk/listing/the-list/list-entry/1000419,TQ 21917 74314,521917,174314,51.45468895292556,-0.24671376202004197
1000420,REDLYNCH PARK,II,https://historicengland.org.uk/listing/the-list/list-entry/1000420,ST6901232274,369841,132385,51.089977896935125,-2.432000534802936
1000421,CHAWTON HOUSE,II,https://historicengland.org.uk/listing/the-list/list-entry/1000421,SU7087436893,471013,136908,51.12705971765913,-0.986603586030509
1000422,Hazlegrove House,II,https://historicengland.org.uk/listing/the-list/list-entry/1000422,ST5974026233,359784,126428,51.03579536233189,-2.5749277666863892
1000423,MAPPERTON HOUSE,II*,https://historicengland.org.uk/listing/the-list/list-entry/1000423,SY5036399533,350363,99549,50.7933694398808,-2.705612545856691
1000424,LONGFORD CASTLE,II*,https://historicengland.org.uk/listing/the-list/list-entry/1000424,SU 16827 26726,416828,126728,51.039665362385634,-1.7613587558931838
1000425,SHARDELOES,II*,https://historicengland.org.uk/listing/the-list/list-entry/1000425,SU 93761 96992,493760,196991,51.66388735184961,-0.6457805103549177
1000426,PORT ELIOT,I,https://historicengland.org.uk/listing/the-list/list-entry/1000426,SX3530058944,235476,58819,50.40615270910566,-4.316637898952119
1000427,TRESCO,I,https://historicengland.org.uk/listing/the-list/list-entry/1000427,SV 89373 14171,89373,14171,49.94675181882663,-6.331445675359683
1000428,ENDSLEIGH,I,https://historicengland.org.uk/listing/the-list/list-entry/1000428,SX 38831 77161,238830,77156,50.571857998375066,-4.27738993958838
1000429,ENCOMBE,II*,https://historicengland.org.uk/listing/the-list/list-entry/1000429,SY 94469 78303,394470,78303,50.60441871374943,-2.079504520403997
1000430,ATHELHAMPTON,I,https://historicengland.org.uk/listing/the-list/list-entry/1000430,SY7685794330,376981,94262,50.7475001771657,-2.3276364486189154
1000431,BATSFORD PARK,II*,https://historicengland.org.uk/listing/the-list/list-entry/1000431,SP 18264 33804,418263,233803,52.002369344672054,-1.7353755814753795
1000432,CIRENCESTER PARK,I,https://historicengland.org.uk/listing/the-list/list-entry/1000432,SO9791603285,397916,203123,51.72682079171094,-2.0315727340974075
1000433,SEZINCOTE,I,https://historicengland.org.uk/listing/the-list/list-entry/1000433,SP1715331293,417573,231086,51.97796395639095,-1.7455649529514494
1000434,BLENHEIM PALACE,I,https://historicengland.org.uk/listing/the-list/list-entry/1000434,SP4348816661,443488,216565,51.84599751591983,-1.3701151876512594
1000435,MAGDALEN COLLEGE,I,https://historicengland.org.uk/listing/the-list/list-entry/1000435,SP5237606435,452326,206337,51.7532890107085,-1.2433704580002551
1000436,STONOR,II*,https://historicengland.org.uk/listing/the-list/list-entry/1000436,SU7391789089,474431,189096,51.5958026192599,-0.9268624490596966
1000437,HESTERCOMBE,I,https://historicengland.org.uk/listing/the-list/list-entry/1000437,ST 24147 28896,324147,128898,51.054395924454106,-3.08361904722448
1000438,IFORD MANOR,I,https://historicengland.org.uk/listing/the-list/list-entry/1000438,"ST 79957 59140, ST 80123 58850",379957,159140,51.3309982062279,-2.289066016560469
1000439,LONGLEAT,I,https://historicengland.org.uk/listing/the-list/list-entry/1000439,"ST 84997 42182, ST 82013 43098",382014,143099,51.18683084481346,-2.258730179873108
1000440,WILTON,I,https://historicengland.org.uk/listing/the-list/list-entry/1000440,SU 09443 29678,409443,129678,51.06635951409988,-1.866614128846658
1000441,CHRIST CHURCH,I,https://historicengland.org.uk/listing/the-list/list-entry/1000441,SP5166105679,451722,205690,51.747528253255446,-1.2522156431220686
1000442,MELLS MANOR HOUSE,I,https://historicengland.org.uk/listing/the-list/list-entry/1000442,ST 72708 49288,372708,149288,51.242109948339944,-2.39235361458688
1000443,DYRHAM PARK,II*,https://historicengland.org.uk/listing/the-list/list-entry/1000443,ST 74424 75821,374424,175820,51.48075205855539,-2.369688582040124
1000444,GOLDNEY HOUSE,II*,https://historicengland.org.uk/listing/the-list/list-entry/1000444,ST 57401 72734,357401,172734,51.451976444835125,-2.614436598018503
1000445,DEANERY GARDEN,II*,https://historicengland.org.uk/listing/the-list/list-entry/1000445,SU7567875617,475677,175595,51.47426580037099,-0.9117754966457446
1000446,WADDESDON MANOR,I,https://historicengland.org.uk/listing/the-list/list-entry/1000446,SP7278116073,474023,216188,51.83940143549394,-0.9270038110256646
1000447,WEST WYCOMBE PARK,I,https://historicengland.org.uk/listing/the-list/list-entry/1000447,SU8301094251,483304,194068,51.63925698347256,-0.7976145136233437
1000448,CAERHAYS CASTLE,II*,https://historicengland.org.uk/listing/the-list/list-entry/1000448,SW9691442068,197160,41109,50.23509847930822,-4.845679986081218
1000449,LANHYDROCK,II*,https://historicengland.org.uk/listing/the-list/list-entry/1000449,SX 09442 63329,209443,63328,50.438789820732616,-4.684883199591064
1000450,HARDWICK HALL,I,https://historicengland.org.uk/listing/the-list/list-entry/1000450,SK 46496 64072,446496,364073,53.171745642381886,-1.3058792855179304
1000451,KEDLESTON HALL,I,https://historicengland.org.uk/listing/the-list/list-entry/1000451,SK3056540741,431357,340749,52.96319555122454,-1.5346114675375038
1000452,CASTLE DROGO,II*,https://historicengland.org.uk/listing/the-list/list-entry/1000452,SX 72797 90074,272797,90073,50.69635163487646,-3.8024328519779402
1000453,Dartington Hall,II*,https://historicengland.org.uk/listing/the-list/list-entry/1000453,SX8004362583,280043,62475,50.449815490748314,-3.6909779649468333
1000454,Sherborne Castle,I,https://historicengland.org.uk/listing/the-list/list-entry/1000454,ST 65861 16382,365947,116402,50.94604184007239,-2.486092890281634
1000455,BRAXTED PARK,II*,https://historicengland.org.uk/listing/the-list/list-entry/1000455,TL8509215999,585677,215512,51.80740569008258,0.6918768701194467
1000456,KIFTSGATE COURT,II,https://historicengland.org.uk/listing/the-list/list-entry/1000456,SP1672642988,416868,242910,52.08429009059737,-1.7552498398410499
1000457,WESTONBIRT,I,https://historicengland.org.uk/listing/the-list/list-entry/1000457,ST8525290049,385655,190052,51.60911537687768,-2.2085474201038937
1000458,Croome Court,I,https://historicengland.org.uk/listing/the-list/list-entry/1000458,"SO8850444750, SO8670044726",388504,244690,52.100424944865935,-2.1692419023307594
1000459,EASTNOR CASTLE,II*,https://historicengland.org.uk/listing/the-list/list-entry/1000459,SO 74446 37561,374446,237562,52.03586773283626,-2.3739322650012826
1000460,BELTON HOUSE,I,https://historicengland.org.uk/listing/the-list/list-entry/1000460,SK 93879 38557,493879,338557,52.93621206784795,-0.604633113763221
1000461,HOLKHAM HALL,I,https://historicengland.org.uk/listing/the-list/list-entry/1000461,TF8727542293,589159,341958,52.941667613357446,0.8136121678486663
1000462,HOUGHTON HALL,I,https://historicengland.org.uk/listing/the-list/list-entry/1000462,TF7763929329,578005,328727,52.82666818067074,0.6405851756365143
1000463,DITCHLEY PARK,II*,https://historicengland.org.uk/listing/the-list/list-entry/1000463,SP3863321232,439071,221134,51.88740061309762,-1.4337152211626336
1000464,OXFORD BOTANIC GARDEN,I,https://historicengland.org.uk/listing/the-list/list-entry/1000464,SP 52031 06057,452031,206057,51.75079914646951,-1.2476854458941407
1000465,WORCESTER COLLEGE,II*,https://historicengland.org.uk/listing/the-list/list-entry/1000465,SP 50723 06584,450724,206584,51.755656657589945,-1.2665401024289424
1000466,WROXTON ABBEY,II*,https://historicengland.org.uk/listing/the-list/list-entry/1000466,SP4135141287,441980,241522,52.07048228196601,-1.388963125275496
1000467,DUNSTER CASTLE,II*,https://historicengland.org.uk/listing/the-list/list-entry/1000467,"SS 99117 41419, SS 99068 44218, SS9908843698, ST0014943441",299117,141410,51.163012615285325,-3.4441339898852723
1000468,MONTACUTE HOUSE,I,https://historicengland.org.uk/listing/the-list/list-entry/1000468,"ST 49721 16455, ST 50066 17130",350069,117129,50.95141893868686,-2.7121893232920686
1000469,AMESBURY ABBEY,II*,https://historicengland.org.uk/listing/the-list/list-entry/1000469,SU1455841888,415203,141690,51.1742487532362,-1.7839102045506534
1000470,CORSHAM COURT,II*,https://historicengland.org.uk/listing/the-list/list-entry/1000470,ST8756171050,388160,170990,51.437780324720826,-2.1717268541341768
1000471,STOURHEAD,I,https://historicengland.org.uk/listing/the-list/list-entry/1000471,ST 76395 34825,376395,134827,51.1122446979079,-2.33858217111481
1000472,TOTTENHAM HOUSE AND SAVERNAKE FOREST,II*,https://historicengland.org.uk/listing/the-list/list-entry/1000472,SU2285566376,422856,166378,51.39598145434172,-1.6728680963369333
1000473,LAVERSTOKE PARK,II,https://historicengland.org.uk/listing/the-list/list-entry/1000473,SU 49532 48909,449532,148909,51.237220175935484,-1.2918856569856616
1000474,OLD WARDEN PARK (INCLUDING THE SWISS GARDEN),II*,https://historicengland.org.uk/listing/the-list/list-entry/1000474,TL1404544275,514485,244179,52.08413547252924,-0.3306222840196972
1000475,WHITWORTH CEMETERY,II,https://historicengland.org.uk/listing/the-list/list-entry/1000475,SD 89233 18965,389233,418965,53.66705125602717,-2.164430862027419
1000476,TYRINGHAM,II*,https://historicengland.org.uk/listing/the-list/list-entry/1000476,SP 85706 46806,485711,246806,52.1129453263772,-0.7497631650855184
1000477,CHANTMARLE,II*,https://historicengland.org.uk/listing/the-list/list-entry/1000477,ST5882402160,358824,102115,50.81710765363634,-2.5858645979656694
1000478,LARMER TREE GROUNDS,II*,https://historicengland.org.uk/listing/the-list/list-entry/1000478,ST 94243 16918,394243,116918,50.95166463032529,-2.0833290010516707
1000479,LITTLECOTE HOUSE,II,https://historicengland.org.uk/listing/the-list/list-entry/1000479,SU2969370297,429994,169501,51.42373040034661,-1.5700098114278302
1000480,STANWAY HOUSE,I,https://historicengland.org.uk/listing/the-list/list-entry/1000480,SP 06192 32193,406193,232813,51.99373192005961,-1.9112149226081179
1000481,OLD ALRESFORD HOUSE,II,https://historicengland.org.uk/listing/the-list/list-entry/1000481,SU 59028 33649,459028,133649,51.0991159276838,-1.1583795982376592
1000482,BAGGRAVE HALL,II,https://historicengland.org.uk/listing/the-list/list-entry/1000482,SK 69731 08857,469731,308858,52.672952008940236,-0.970178047769839
1000483,ST JAMES'S PARK,I,https://historicengland.org.uk/listing/the-list/list-entry/1000483,TQ2945579732,529566,179849,51.502733406038246,-0.13465885141647094
1000484,TRENT PARK,II,https://historicengland.org.uk/listing/the-list/list-entry/1000484,TQ 28735 97589,528735,197589,51.66234562059908,-0.14012663285278892
1000485,WOOD HOUSE,I,https://historicengland.org.uk/listing/the-list/list-entry/1000485,SX 65511 95957,265511,95957,50.74759469359262,-3.907683158499337
1000486,LUSCOMBE CASTLE,I,https://historicengland.org.uk/listing/the-list/list-entry/1000486,SX 94044 76650,294044,76651,50.579955030528055,-3.4978757456528276
1000487,KNIGHTSHAYES COURT,II*,https://historicengland.org.uk/listing/the-list/list-entry/1000487,SS9542115298,295922,114998,50.92501843130494,-3.482211421796753
1000488,CANONS ASHBY,II*,https://historicengland.org.uk/listing/the-list/list-entry/1000488,SP 57276 50154,457276,250154,52.14671281505224,-1.1643817317610967
1000489,HEYTHROP PARK,II*,https://historicengland.org.uk/listing/the-list/list-entry/1000489,SP3515327318,435627,226953,51.93994614080388,-1.4831533296155455
1000490,RHINEFIELD HOUSE,II,https://historicengland.org.uk/listing/the-list/list-entry/1000490,SU 26557 03747,426557,103747,50.83265155650772,-1.624264959469445
1000491,CROXTON PARK,II*,https://historicengland.org.uk/listing/the-list/list-entry/1000491,TL 25334 59495,525334,259495,52.2194155723565,-0.16673056988572893
1000492,INCE BLUNDELL PARK,II*,https://historicengland.org.uk/listing/the-list/list-entry/1000492,SD 32970 02641,332972,402641,53.51615215330715,-3.012324184846795
1000493,STAUNTON HAROLD HALL,II*,https://historicengland.org.uk/listing/the-list/list-entry/1000493,SK3780621223,437941,321263,52.78761349604288,-1.4388592956711086
1000494,HEVENINGHAM HALL,II*,https://historicengland.org.uk/listing/the-list/list-entry/1000494,TM3531273124,635312,273482,52.30899150304128,1.4504942978144606
1000495,GOBIONS (GUBBINS),II,https://historicengland.org.uk/listing/the-list/list-entry/1000495,"TL 25403 03469, TL2540403479",525404,203469,51.71593968307401,-0.1861494156955982
1000496,KENILWORTH CASTLE,II*,https://historicengland.org.uk/listing/the-list/list-entry/1000496,"SP2675772150, SP 28268 71824",427313,272120,52.346477600313385,-1.6004760247567067
1000497,DOWNTON CASTLE,II*,https://historicengland.org.uk/listing/the-list/list-entry/1000497,SO 44644 74208,344645,274207,52.36310721346969,-2.8143308783166634
1000498,"SPA GARDENS, ROYAL LEAMINGTON SPA",II,https://historicengland.org.uk/listing/the-list/list-entry/1000498,SP 31851 65527,431851,265526,52.286954275829906,-1.5344836710119494
1000499,BROCKENHURST PARK,II,https://historicengland.org.uk/listing/the-list/list-entry/1000499,SU 31134 01710,431134,101710,50.8141071446539,-1.5594468101033954
1000500,HOLME LACY,II*,https://historicengland.org.uk/listing/the-list/list-entry/1000500,SO 55185 34738,355185,234738,52.00925364829943,-2.654328517348442
1000501,TATTON PARK,II*,https://historicengland.org.uk/listing/the-list/list-entry/1000501,SJ 75345 81106,375344,381107,53.326301684400065,-2.371643432225754
1000502,ASHDOWN HOUSE,II*,https://historicengland.org.uk/listing/the-list/list-entry/1000502,SU 28295 81637,428295,181637,51.532935495756576,-1.5934762279638166
1000503,SARSDEN HOUSE,II*,https://historicengland.org.uk/listing/the-list/list-entry/1000503,SP2886422858,429274,222977,51.90456885407292,-1.5759021863363578
1000504,FRIAR PARK,II,https://historicengland.org.uk/listing/the-list/list-entry/1000504,SU 75401 82913,475401,182909,51.54005428197335,-0.9141871389322367
1000505,BARRINGTON COURT,II*,https://historicengland.org.uk/listing/the-list/list-entry/1000505,ST3959718257,339787,118223,50.96027088099187,-2.8587289473032134
1000506,BRYMPTON d'EVERCY,II*,https://historicengland.org.uk/listing/the-list/list-entry/1000506,ST 52044 15430,352044,115430,50.93631018699772,-2.6838511953037143
1000507,WARDOUR CASTLE AND OLD WARDOUR CASTLE,II*,https://historicengland.org.uk/listing/the-list/list-entry/1000507,ST 93295 25954,393295,125955,51.03291702810751,-2.096994391957497
1000508,GIBSIDE,I,https://historicengland.org.uk/listing/the-list/list-entry/1000508,NZ 18025 58007,418026,558014,54.91650630647,-1.7203259948026888
1000509,STANFORD HALL,II,https://historicengland.org.uk/listing/the-list/list-entry/1000509,SP5829480297,458301,279803,52.41312856841886,-1.1442871787933102
1000510,TREWITHEN,II*,https://historicengland.org.uk/listing/the-list/list-entry/1000510,SW 91172 47510,191172,47511,50.29051318467994,-4.933064349738723
1000511,WASING PLACE,II,https://historicengland.org.uk/listing/the-list/list-entry/1000511,SU 57688 64327,457688,164327,51.37507603258872,-1.172582822198553
1000512,CHYVERTON PARK,II,https://historicengland.org.uk/listing/the-list/list-entry/1000512,SW 80056 51162,180056,51162,50.31926011301268,-5.0910123566176795
1000513,PENJERRICK,II,https://historicengland.org.uk/listing/the-list/list-entry/1000513,SW 78027 30753,178027,30753,50.135223528667076,-5.107525261601619
1000514,WERRINGTON PARK,II,https://historicengland.org.uk/listing/the-list/list-entry/1000514,SX 33111 86805,233111,86805,50.656949452797086,-4.362422820251014
1000515,WYCH CROSS PLACE,II*,https://historicengland.org.uk/listing/the-list/list-entry/1000515,TQ 41500 31547,541500,131547,51.0658246678515,0.0180531747966106
1000516,BERKELEY SQUARE,II,https://historicengland.org.uk/listing/the-list/list-entry/1000516,TQ 28770 80598,528770,180598,51.50964622187356,-0.1458475887577111
1000517,BROOMFIELD HOUSE,II,https://historicengland.org.uk/listing/the-list/list-entry/1000517,TQ 30412 92729,530412,192729,51.61828549030689,-0.11770374222702057
1000518,ST ANN'S COURT,II*,https://historicengland.org.uk/listing/the-list/list-entry/1000518,TQ 02739 67245,502739,167245,51.39494986913336,-0.5246707614439949
1000519,KNEPP CASTLE,II,https://historicengland.org.uk/listing/the-list/list-entry/1000519,TQ 15681 21701,515681,121701,50.983103026591166,-0.3533820789709373
1000520,HAZELBURY MANOR,II,https://historicengland.org.uk/listing/the-list/list-entry/1000520,ST 83691 68116,383691,168116,51.411826796855436,-2.2358867363614086
1000521,THORPE HALL,II,https://historicengland.org.uk/listing/the-list/list-entry/1000521,TM 18224 21772,618224,221772,51.851858872637465,1.1672010819586385
1000522,CHILSTON PARK,II,https://historicengland.org.uk/listing/the-list/list-entry/1000522,TQ 89486 49628,589486,149628,51.2144087887362,0.711678637999718
1000523,BALLS PARK,II,https://historicengland.org.uk/listing/the-list/list-entry/1000523,TL 33635 11947,533635,211947,51.79022379444675,-0.06381918232014602
1000524,CAVERSHAM PARK,II,https://historicengland.org.uk/listing/the-list/list-entry/1000524,SU7257476164,472574,176133,51.47950836014663,-0.9563347435734783
1000525,HAMSTEAD MARSHALL PARK,II,https://historicengland.org.uk/listing/the-list/list-entry/1000525,SU 42723 66209,442722,166210,51.39332678224554,-1.3873582337035733
1000526,FARLEY HALL,II,https://historicengland.org.uk/listing/the-list/list-entry/1000526,"SU 74882 64803, SU 74436 64721",474880,164805,51.37736966517398,-0.9255256897169662
1000527,Minterne House,II,https://historicengland.org.uk/listing/the-list/list-entry/1000527,ST6612004246,366120,104280,50.837050016515036,-2.4825023389314596
1000528,NYNEHEAD COURT,II*,https://historicengland.org.uk/listing/the-list/list-entry/1000528,ST1342122474,313817,122297,50.99359267614541,-3.2293983316424772
1000529,AVINGTON PARK,II*,https://historicengland.org.uk/listing/the-list/list-entry/1000529,SU5243131764,453325,132362,51.08810178520145,-1.2400075575454212
1000530,ALDERMASTON COURT,II,https://historicengland.org.uk/listing/the-list/list-entry/1000530,SU5964064639,459736,164757,51.378730634185295,-1.1430904767927077
1000531,Melbury Park,II*,https://historicengland.org.uk/listing/the-list/list-entry/1000531,ST5766506455,357665,106303,50.854682319554414,-2.602800882407373
1000532,CREECH GRANGE,II*,https://historicengland.org.uk/listing/the-list/list-entry/1000532,SY 90674 82467,390674,82467,50.641815645389244,-2.1332514828198317
1000533,MELTON CONSTABLE HALL,II*,https://historicengland.org.uk/listing/the-list/list-entry/1000533,"TG 03334 33314, TG 02997 31941",602997,331940,52.84668727073644,1.0129999189055212
1000534,DONNINGTON GROVE,II,https://historicengland.org.uk/listing/the-list/list-entry/1000534,SU 45873 68873,445872,168872,51.417015571022795,-1.3417439664228854
1000535,PLUMPTON ROCKS,II*,https://historicengland.org.uk/listing/the-list/list-entry/1000535,SE 35532 53730,435532,453730,53.97841614775303,-1.4597192535756152
1000536,KELSTON PARK,II*,https://historicengland.org.uk/listing/the-list/list-entry/1000536,ST6993566646,370104,166521,51.39692920802102,-2.4311069907962413
1000537,SWALLOWFIELD PARK,II,https://historicengland.org.uk/listing/the-list/list-entry/1000537,SU7340065277,473265,164766,51.37722944637925,-0.9487334990377537
1000538,HELIGAN,II,https://historicengland.org.uk/listing/the-list/list-entry/1000538,SX 00316 45854,200316,45854,50.27879585278402,-4.803984328876813
1000539,GAWSWORTH [OLD] HALL,II*,https://historicengland.org.uk/listing/the-list/list-entry/1000539,"SJ 89206 69608, SJ 88771 69615, SJ 88827 69561",389206,369608,53.22340769195901,-2.163128315894699
1000540,BROCKET HALL,II,https://historicengland.org.uk/listing/the-list/list-entry/1000540,TL 21398 13021,521398,213020,51.802653372340416,-0.24077434866593747
1000541,BADGER DINGLE,II,https://historicengland.org.uk/listing/the-list/list-entry/1000541,SO 77023 99675,377023,299675,52.594380206851234,-2.3406294305550825
1000542,RUSHMORE PARK,II,https://historicengland.org.uk/listing/the-list/list-entry/1000542,ST 95575 16877,395575,116877,50.951307978169865,-2.0643661737067758
1000543,HARLEYFORD MANOR,II,https://historicengland.org.uk/listing/the-list/list-entry/1000543,SU 82805 84854,482806,184857,51.55652943737179,-0.8069804118687801
1000544,CARCLEW,II,https://historicengland.org.uk/listing/the-list/list-entry/1000544,SW7823138354,178849,38209,50.202488198888204,-5.100373909738264
1000545,TREGREHAN,II*,https://historicengland.org.uk/listing/the-list/list-entry/1000545,SX0492053342,205192,53549,50.349550284608526,-4.739604653475345
1000546,BRAMHAM PARK,I,https://historicengland.org.uk/listing/the-list/list-entry/1000546,SE 41244 41578,441244,441577,53.86877146779278,-1.3742665120454356
1000547,NEWBOLD COLLEGE (formerly MOOR CLOSE),II*,https://historicengland.org.uk/listing/the-list/list-entry/1000547,SU 84667 69999,484667,169999,51.42268836382774,-0.7837022348915292
1000548,CROWE HALL,II,https://historicengland.org.uk/listing/the-list/list-entry/1000548,ST 76007 63945,376007,163945,51.37404874298695,-2.3460855177668885
1000549,EASTBURY,II*,https://historicengland.org.uk/listing/the-list/list-entry/1000549,ST9338113026,393415,112700,50.91372595606948,-2.0950388315994903
1000550,LEAZES PARK,II,https://historicengland.org.uk/listing/the-list/list-entry/1000550,NZ 24253 64919,424253,564919,54.978292778328736,-1.6226072599664385
1000551,BEESTON HALL,II,https://historicengland.org.uk/listing/the-list/list-entry/1000551,TG3329121903,633298,321449,52.740291490526545,1.4546502996889803
1000552,PATSHULL HALL,II,https://historicengland.org.uk/listing/the-list/list-entry/1000552,SJ8005301278,380766,300440,52.601403441359885,-2.2854191910893955
1000553,"PEOPLES PARK, HALIFAX",II*,https://historicengland.org.uk/listing/the-list/list-entry/1000553,SE 08512 24842,408512,424842,53.71992007520847,-1.872490056367913
1000554,BUCKLAND HOUSE,II*,https://historicengland.org.uk/listing/the-list/list-entry/1000554,SU 33949 98071,433949,198069,51.68036461324995,-1.5103821118102323
1000555,MAMHEAD PARK,II*,https://historicengland.org.uk/listing/the-list/list-entry/1000555,SX9290081239,293257,80996,50.61887194969941,-3.510237180243717
1000556,WELBECK ABBEY,II,https://historicengland.org.uk/listing/the-list/list-entry/1000556,SK 56610 74062,456608,374059,53.26052128722992,-1.152852636860621
1000557,HENHAM,II,https://historicengland.org.uk/listing/the-list/list-entry/1000557,TM 45400 77720,645399,277719,52.34259695964367,1.6012449227289003
1000558,"THE GARDEN HOUSE, COTTERED",II*,https://historicengland.org.uk/listing/the-list/list-entry/1000558,TL 31546 29029,531546,229029,51.94421564541751,-0.0875893578600741
1000559,ARNOS VALE CEMETERY,II*,https://historicengland.org.uk/listing/the-list/list-entry/1000559,ST 60689 71520,360689,171520,51.44129975403628,-2.566986008880899
1000560,ASHTON COURT,II*,https://historicengland.org.uk/listing/the-list/list-entry/1000560,ST5475672241,355040,172115,51.446227994192185,-2.648332836431778
1000561,BADMINTON HOUSE,I,https://historicengland.org.uk/listing/the-list/list-entry/1000561,"ST8013284404, ST8229280595, ST8294379648",380132,184684,51.560681575201855,-2.2879967383493813
1000562,BARROW COURT,II,https://historicengland.org.uk/listing/the-list/list-entry/1000562,ST5123368588,351514,168365,51.41222047367152,-2.698551052061726
1000563,LANSDOWN CEMETERY AND BECKFORD'S TOWER,II,https://historicengland.org.uk/listing/the-list/list-entry/1000563,ST7379267520,373883,167455,51.405514530325874,-2.3768588689662216
1000564,CLAVERTON MANOR,II,https://historicengland.org.uk/listing/the-list/list-entry/1000564,ST 78410 64146,378409,164147,51.37596194583045,-2.311589842655528
1000565,CLEVEDON COURT,II*,https://historicengland.org.uk/listing/the-list/list-entry/1000565,ST4187571767,342384,171534,51.43985568295822,-2.830330683504051
1000566,DODINGTON HOUSE,II*,https://historicengland.org.uk/listing/the-list/list-entry/1000566,ST7513879567,375590,179739,51.516040705838776,-2.3531708346842786
1000567,NEWTON PARK,II*,https://historicengland.org.uk/listing/the-list/list-entry/1000567,ST 69529 64332,369531,164332,51.37721648884066,-2.4391543617886846
1000568,ST CATHERINE'S COURT,II*,https://historicengland.org.uk/listing/the-list/list-entry/1000568,ST 77903 70086,377903,170086,51.429342739539514,-2.319231387990382
1000569,THORNBURY CASTLE,II,https://historicengland.org.uk/listing/the-list/list-entry/1000569,ST 63373 90698,363373,190698,51.613910325379024,-2.530371824144239
1000570,TYNTESFIELD,II*,https://historicengland.org.uk/listing/the-list/list-entry/1000570,"ST 50845 71241, ST 50679 70165",350846,171240,51.43801163173766,-2.7085549931729007
1000571,WIDCOMBE MANOR,II,https://historicengland.org.uk/listing/the-list/list-entry/1000571,ST 75854 63858,375854,163858,51.37325996570176,-2.3482776254541147
1000572,THE HAZELLS,II,https://historicengland.org.uk/listing/the-list/list-entry/1000572,TL 19024 49939,519025,249941,52.134958546506766,-0.26238604715572095
1000573,BATTLESDEN PARK,II,https://historicengland.org.uk/listing/the-list/list-entry/1000573,SP9548329138,495896,228897,51.95030948835291,-0.6060894858358309
1000574,CHICKSANDS PRIORY,II,https://historicengland.org.uk/listing/the-list/list-entry/1000574,TL 12259 39178,512259,239178,52.03964723826794,-0.364736290121879
1000575,HINWICK HALL,II,https://historicengland.org.uk/listing/the-list/list-entry/1000575,SP 93434 62333,493434,262333,52.2512505700758,-0.6327432175947858
1000576,HINWICK HOUSE,II,https://historicengland.org.uk/listing/the-list/list-entry/1000576,SP 93669 61863,493669,261863,52.24698643082328,-0.629432041238573
1000577,ICKWELL BURY,II,https://historicengland.org.uk/listing/the-list/list-entry/1000577,TL 13947 45918,513947,245918,52.09987434849844,-0.337889578401332
1000578,LUTON HOO,II*,https://historicengland.org.uk/listing/the-list/list-entry/1000578,TL 10600 16727,510598,216734,51.83827092580204,-0.39615194314701513
1000579,SOUTHILL PARK,II*,https://historicengland.org.uk/listing/the-list/list-entry/1000579,TL1380142570,514009,240591,52.05198895013494,-0.33876292690385584
1000580,ASCOT PLACE,II*,https://historicengland.org.uk/listing/the-list/list-entry/1000580,SU9113971659,491305,171296,51.4333182979439,-0.687926078216384
1000581,BASILDON PARK,II,https://historicengland.org.uk/listing/the-list/list-entry/1000581,SU6060877730,460883,177952,51.49723880940944,-1.124347401121956
1000582,CAVERSHAM COURT,II,https://historicengland.org.uk/listing/the-list/list-entry/1000582,SU7084774819,470864,174828,51.46799277331074,-0.9812156137337913
1000583,ENGLEFIELD HOUSE,II,https://historicengland.org.uk/listing/the-list/list-entry/1000583,SU 62312 71660,462313,171661,51.44052458752896,-1.104857518652688
1000584,ETON COLLEGE,II,https://historicengland.org.uk/listing/the-list/list-entry/1000584,SU 97054 78208,497054,178208,51.49449480104483,-0.6033544140314578
1000585,FOLLY FARM,II*,https://historicengland.org.uk/listing/the-list/list-entry/1000585,SU 63081 68828,463081,168828,51.414969786155396,-1.0943128958742816
1000586,THE FORBURY GARDEN,II,https://historicengland.org.uk/listing/the-list/list-entry/1000586,SU 71868 73622,471868,173622,51.457024344276235,-0.9670090571717159
1000587,"THE ROYAL ESTATE, WINDSOR: FROGMORE GARDENS",I,https://historicengland.org.uk/listing/the-list/list-entry/1000587,SU9751876014,497627,175966,51.47424340659611,-0.5957222892431957
1000588,"PARK PLACE, AND TEMPLE COMBE",II*,https://historicengland.org.uk/listing/the-list/list-entry/1000588,SU 77850 81998,477850,181998,51.53153270445187,-0.8790833363742514
1000589,PROSPECT PARK,II,https://historicengland.org.uk/listing/the-list/list-entry/1000589,SU6883472440,468922,172690,51.44901123387475,-1.0095845671288446
1000590,PURLEY HALL,II*,https://historicengland.org.uk/listing/the-list/list-entry/1000590,SU6443575768,464728,175805,51.47751022581255,-1.0693591736703323
1000591,SOUTH HILL PARK,II,https://historicengland.org.uk/listing/the-list/list-entry/1000591,SU 87002 66902,487002,166902,51.3944948545617,-0.7508873015310065
1000592,"THE ROYAL ESTATE, WINDSOR: WINDSOR GREAT PARK",I,https://historicengland.org.uk/listing/the-list/list-entry/1000592,"SU 98582 68851, SU9817469308",496570,171487,51.43416334953194,-0.6121578824902627
1000593,ASCOTT HOUSE,II*,https://historicengland.org.uk/listing/the-list/list-entry/1000593,SP 89582 22741,489580,222741,51.896028082803795,-0.6995627621637803
1000594,CHENIES PLACE (WOODSIDE),II*,https://historicengland.org.uk/listing/the-list/list-entry/1000594,TQ0150698702,501595,198691,51.67780715366248,-0.5320437676895186
1000595,CHEQUERS,II,https://historicengland.org.uk/listing/the-list/list-entry/1000595,SP8303006001,483626,205918,51.74573088073448,-0.79012608351029
1000596,CHICHELEY HALL,II*,https://historicengland.org.uk/listing/the-list/list-entry/1000596,SP 90607 45944,490607,245943,52.104409086072955,-0.6785154302135589
1000597,CLAYDON,II,https://historicengland.org.uk/listing/the-list/list-entry/1000597,SP7149825593,471886,225403,51.922517374274044,-0.9560989635668438
1000598,DENHAM PLACE,II,https://historicengland.org.uk/listing/the-list/list-entry/1000598,TQ 03939 87291,503938,187290,51.57490465494997,-0.501549356073248
1000599,DROPMORE,II,https://historicengland.org.uk/listing/the-list/list-entry/1000599,SU 92343 85388,492343,185388,51.55982396796817,-0.6693149938403864
1000600,GAYHURST COURT,II,https://historicengland.org.uk/listing/the-list/list-entry/1000600,"SP 85022 46788, SP 84650 46420",484651,246422,52.1096568231058,-0.7653339379188021
1000601,HALTON HOUSE,II,https://historicengland.org.uk/listing/the-list/list-entry/1000601,SP 88158 10020,488158,210020,51.78190925557585,-0.7234603103903124
1000602,HUNTERCOMBE MANOR,II,https://historicengland.org.uk/listing/the-list/list-entry/1000602,SU 93269 80640,493269,180640,51.51699234800001,-0.6572175447877867
1000603,LANGLEY PARK,II,https://historicengland.org.uk/listing/the-list/list-entry/1000603,TQ 00906 81782,500907,181780,51.52592814972509,-0.5468506698272984
1000604,MILTON'S COTTAGE,II,https://historicengland.org.uk/listing/the-list/list-entry/1000604,SU 98872 93280,498872,193280,51.62965612042299,-0.5729410019326833
1000605,MISSENDEN ABBEY,II,https://historicengland.org.uk/listing/the-list/list-entry/1000605,SP 90052 00664,490052,200666,51.69752711547947,-0.698430271347762
1000606,NASHDOM ABBEY,II,https://historicengland.org.uk/listing/the-list/list-entry/1000606,SU 92019 84145,492019,184145,51.548703562400156,-0.6743122806574612
1000607,TAPLOW COURT,II,https://historicengland.org.uk/listing/the-list/list-entry/1000607,SU9061082553,490659,182427,51.533480223617204,-0.6943624114942231
1000608,Wotton House,I,https://historicengland.org.uk/listing/the-list/list-entry/1000608,SP 68532 16192,468531,216197,51.84018221199249,-1.0067017638468196
1000609,WYCOMBE ABBEY,II,https://historicengland.org.uk/listing/the-list/list-entry/1000609,SU8655092360,486846,192322,51.62302696100171,-0.7468763440372417
1000610,ABBOTS RIPTON HALL,II,https://historicengland.org.uk/listing/the-list/list-entry/1000610,TL 24234 77769,524234,277769,52.38386897725285,-0.17608859743994335
1000611,ANGLESEY ABBEY,II*,https://historicengland.org.uk/listing/the-list/list-entry/1000611,TL 52816 61970,552819,261974,52.23475428082434,0.23642265805311108
1000612,"BOTANIC GARDEN, CAMBRIDGE",II*,https://historicengland.org.uk/listing/the-list/list-entry/1000612,TL 45535 57182,545535,257182,52.193674025992024,0.12778071431273652
1000613,BOURN HALL,II,https://historicengland.org.uk/listing/the-list/list-entry/1000613,TL3140755623,531860,255733,52.18409105365051,-0.07272072043587778
1000614,CHILDERLEY HALL,II*,https://historicengland.org.uk/listing/the-list/list-entry/1000614,TL 35596 61553,535596,261553,52.23547878524986,-0.01578092243218989
1000615,CHIPPENHAM HALL,II,https://historicengland.org.uk/listing/the-list/list-entry/1000615,TL 66509 68934,566509,268934,52.293303867249314,0.44013781274481384
1000616,CHRIST'S COLLEGE,II,https://historicengland.org.uk/listing/the-list/list-entry/1000616,TL 45153 58569,545153,258569,52.206235730163506,0.12278995857057481
1000617,CLARE COLLEGE,II,https://historicengland.org.uk/listing/the-list/list-entry/1000617,TL 44451 58441,544451,258441,52.20527000912316,0.11246973082973508
1000618,DULLINGHAM HOUSE,II,https://historicengland.org.uk/listing/the-list/list-entry/1000618,TL 62708 58062,562711,258064,52.19680052603748,0.37926903657420824
1000619,EMMANUEL COLLEGE,II*,https://historicengland.org.uk/listing/the-list/list-entry/1000619,TL 45296 58333,545296,258333,52.20407781593046,0.12477993470279453
1000620,GAMLINGAY,II,https://historicengland.org.uk/listing/the-list/list-entry/1000620,TL 22689 51970,522689,251970,52.15239073171886,-0.20814888982965546
1000621,HAMERTON,II,https://historicengland.org.uk/listing/the-list/list-entry/1000621,TL 13781 79493,513781,279493,52.401630516647245,-0.3290125235612626
1000622,HATLEY PARK,II,https://historicengland.org.uk/listing/the-list/list-entry/1000622,TL 27431 51003,527431,251003,52.142628716159734,-0.1392392319865849
1000623,HILTON MAZE,II,https://historicengland.org.uk/listing/the-list/list-entry/1000623,TL 29244 66220,529245,266220,52.27893967478194,-0.1069423456681919
1000624,KING'S COLLEGE,II*,https://historicengland.org.uk/listing/the-list/list-entry/1000624,TL 44531 58325,544531,258325,52.204206882271215,0.11359012103579184
1000625,LEIGHTON BROMSWOLD,II,https://historicengland.org.uk/listing/the-list/list-entry/1000625,TL 11732 75131,511732,275131,52.36285343238932,-0.3605689512685238
1000626,LONGSTOWE HALL,II*,https://historicengland.org.uk/listing/the-list/list-entry/1000626,TL 30567 55715,530567,255715,52.184236601102334,-0.09162874710241446
1000627,MADINGLEY HALL,II,https://historicengland.org.uk/listing/the-list/list-entry/1000627,TL 39211 60559,539212,260559,52.225646480370536,0.03672635707075714
1000628,MILTON HALL,II*,https://historicengland.org.uk/listing/the-list/list-entry/1000628,TL 14973 99775,514973,299777,52.58365403236918,-0.30450371911921786
1000629,PECKOVER HOUSE,II,https://historicengland.org.uk/listing/the-list/list-entry/1000629,TF 45796 09674,545796,309674,52.665179786687744,0.15447503952999983
1000630,QUEENS' COLLEGE,II,https://historicengland.org.uk/listing/the-list/list-entry/1000630,TL 44575 58106,544575,258106,52.20222780132906,0.11414012217213486
1000631,SAWSTON HALL,II,https://historicengland.org.uk/listing/the-list/list-entry/1000631,TL4889248982,549036,248743,52.11692408588391,0.17526138476810613
1000632,ST JOHN'S COLLEGE,II*,https://historicengland.org.uk/listing/the-list/list-entry/1000632,TL 44586 58798,544586,258798,52.20844202155797,0.11459615919400623
1000633,TRINITY COLLEGE,II,https://historicengland.org.uk/listing/the-list/list-entry/1000633,TL 44496 58599,544496,258599,52.20667773746396,0.11319513341554917
1000634,TRINITY HALL,II,https://historicengland.org.uk/listing/the-list/list-entry/1000634,TL 44635 58498,544635,258498,52.20573390227704,0.1151847138571583
1000635,WIMPOLE HALL,I,https://historicengland.org.uk/listing/the-list/list-entry/1000635,TL3352050909,534263,251076,52.14166798808493,-0.039434601213017034
1000636,ADLINGTON HALL,II*,https://historicengland.org.uk/listing/the-list/list-entry/1000636,"SJ9028780831, SJ9024780317",390519,380208,53.318713502655676,-2.143782415408871
1000637,ARLEY HALL,II*,https://historicengland.org.uk/listing/the-list/list-entry/1000637,SJ 67794 80198,367795,380200,53.31774216549663,-2.48488659841475
1000638,CHOLMONDELEY CASTLE,II,https://historicengland.org.uk/listing/the-list/list-entry/1000638,SJ 54447 51391,354450,351392,53.05782627121989,-2.681076525442188
1000639,COMBERMERE ABBEY,II,https://historicengland.org.uk/listing/the-list/list-entry/1000639,SJ 58866 44077,358866,344074,52.99240667105684,-2.614256746455125
1000640,DODDINGTON HALL,II,https://historicengland.org.uk/listing/the-list/list-entry/1000640,SJ7099146760,371015,346718,53.01697093034816,-2.4335077749294323
1000641,DORFOLD HALL,II,https://historicengland.org.uk/listing/the-list/list-entry/1000641,SJ6329852258,363618,352153,53.06537127480609,-2.5443799346834135
1000642,LYME PARK,II*,https://historicengland.org.uk/listing/the-list/list-entry/1000642,SJ 96278 82284,396278,382284,53.33744701479865,-2.0573583431958036
1000643,PEOVER HALL,II,https://historicengland.org.uk/listing/the-list/list-entry/1000643,SJ7721073750,377411,373275,53.25599595016413,-2.3400505153758338
1000644,RODE HALL,II,https://historicengland.org.uk/listing/the-list/list-entry/1000644,SJ8163857529,381737,357422,53.1136642690418,-2.274296474170193
1000645,TABLEY HOUSE,II,https://historicengland.org.uk/listing/the-list/list-entry/1000645,SJ7234577731,372547,377434,53.29314879755532,-2.4133168482163443
1000646,ALBERT PARK,II,https://historicengland.org.uk/listing/the-list/list-entry/1000646,NZ 49579 19109,449579,519109,54.56478826081516,-1.2347532653478168
1000647,ANTONY,II*,https://historicengland.org.uk/listing/the-list/list-entry/1000647,SX 42164 56453,242162,56452,50.38671703875432,-4.221630225365645
1000648,COTEHELE,II*,https://historicengland.org.uk/listing/the-list/list-entry/1000648,SX4223568824,241920,68124,50.49154012080695,-4.229957246000596
1000649,GLENDURGAN,II,https://historicengland.org.uk/listing/the-list/list-entry/1000649,SW7720727864,177263,27657,50.10713417489149,-5.116392128868851
1000650,LAMELLEN,II,https://historicengland.org.uk/listing/the-list/list-entry/1000650,SX 05380 77316,205380,77316,50.56310579861394,-4.749322463076206
1000651,MENABILLY,II,https://historicengland.org.uk/listing/the-list/list-entry/1000651,"SX 09638 51904, SX 10278 50909",210278,50909,50.32749535899682,-4.66686921333597
1000652,PENCARROW,II*,https://historicengland.org.uk/listing/the-list/list-entry/1000652,SX0388870831,204231,69885,50.49597293228432,-4.761623412728333
1000653,PENHEALE MANOR,II,https://historicengland.org.uk/listing/the-list/list-entry/1000653,SX2677587924,226790,87948,50.66537227881837,-4.452298520926821
1000654,ST MICHAEL'S MOUNT,II,https://historicengland.org.uk/listing/the-list/list-entry/1000654,SW 51478 29972,151478,29972,50.11768523163436,-5.477843148266158
1000655,TREGOTHNAN,II*,https://historicengland.org.uk/listing/the-list/list-entry/1000655,SW 85876 41258,185876,41254,50.23242037186686,-5.003767521596254
1000656,TRELISSICK,II*,https://historicengland.org.uk/listing/the-list/list-entry/1000656,SW8310939683,183324,39053,50.21172367107257,-5.0382411182044
