"ListEntry","dataset","end.date","entity","entry.date","name","point","start.date","typology","url","geography","heritage.at.risk","organisation","Name","hyperlink","NGR","Easting","Northing","Grade","lat","lon"
1001731,"heritage-at-risk",NA,7500726,"2024-09-26","Offa's Dyke: Rushock Hill section, extending 1630yds (1490m) east to Kennel Wood","POINT(-3.032993 52.229575)",NA,"geography","https://historicengland.org.uk/advice/heritage-at-risk/search-register/list-entry/37764",NA,NA,NA,"Offa's Dyke: Rushock Hill section, extending 1630yds (1490m) E to Kennel Wood","https://historicengland.org.uk/listing/the-list/list-entry/1001731","SO 29562 59529",329562,259529,NA,52.2294359126987,-3.03272038639519
1001733,"heritage-at-risk",NA,7500390,"2021-12-01","Offa's Dyke: the section 630yds (580m) long west of Lyonshall","POINT(-2.984735 52.198062)",NA,"geography","https://historicengland.org.uk/advice/heritage-at-risk/search-register/list-entry/34594",NA,NA,NA,"Offa's Dyke: the section 630yds (580m) long W of Lyonshall","https://historicengland.org.uk/listing/the-list/list-entry/1001733","SO 32790 55995",332790,255995,NA,52.1980727688308,-2.98476317596531
1001735,"heritage-at-risk",NA,7500391,"2024-09-26","Offa's Dyke: section north west of Holme Marsh extending 615 yards (560 metres) to the railway","POINT(-2.974065 52.189224)",NA,"geography","https://historicengland.org.uk/advice/heritage-at-risk/search-register/list-entry/37756",NA,NA,NA,"Offa's Dyke: section NW of Holme Marsh extending 615yds (560m) to the railway","https://historicengland.org.uk/listing/the-list/list-entry/1001735","SO 33493 55016",333493,255016,NA,52.1893578466299,-2.97428676871494
1001738,"heritage-at-risk",NA,7500727,"2024-09-26","Offa's Dyke: the section extending 950yds (870m) N and S of Big Oaks","POINT(-2.867624 52.083725)",NA,"geography","https://historicengland.org.uk/advice/heritage-at-risk/search-register/list-entry/34587",NA,NA,NA,"Offa's Dyke: the section extending 950yds (870m) N and S of Big Oaks","https://historicengland.org.uk/listing/the-list/list-entry/1001738","SO 40636 43192, SO 40811 42789",340636,243192,NA,52.0838832805788,-2.8677436763986
1001747,"heritage-at-risk",NA,7500728,"2024-09-26","Sutton Walls (camp)","POINT(-2.694551 52.113900)",NA,"geography","https://historicengland.org.uk/advice/heritage-at-risk/search-register/list-entry/35712",NA,NA,NA,"Sutton Walls (camp)","https://historicengland.org.uk/listing/the-list/list-entry/1001747","SO 52520 46404",352520,246404,NA,52.1139081461655,-2.69477840240727
1001758,"heritage-at-risk",NA,7500504,"2024-09-26","Dinedor Camp","POINT(-2.695883 52.023538)",NA,"geography","https://historicengland.org.uk/advice/heritage-at-risk/search-register/list-entry/35701",NA,NA,NA,"Dinedor Camp","https://historicengland.org.uk/listing/the-list/list-entry/1001758","SO 52357 36358",352357,236358,NA,52.0235813269499,-2.6957529409245
1001778,"heritage-at-risk",NA,7500505,"2024-09-26","Motte and bailey, west of St Mary's Church","POINT(-2.961579 51.919567)",NA,"geography","https://historicengland.org.uk/advice/heritage-at-risk/search-register/list-entry/43323",NA,NA,NA,"Motte and bailey, W of St Mary's Church","https://historicengland.org.uk/listing/the-list/list-entry/1001778","SO 33964 24999",333964,224999,NA,51.9195816937558,-2.96158548199207
1001789,"heritage-at-risk",NA,7502103,"2024-09-26","Gilkicker Fort, Fort Road, Gilkicker Point","POINT(-1.140891 50.774004)",NA,"geography","https://historicengland.org.uk/advice/heritage-at-risk/search-register/list-entry/46649",NA,NA,NA,"Gilkicker fort","https://historicengland.org.uk/listing/the-list/list-entry/1001789","SZ 60679 97497",460679,97497,NA,50.7738898125786,-1.14081318554153
1001794,"heritage-at-risk",NA,7500506,"2024-09-26","Andover-Redbridge canal, Chalk Hill Lock, Horsebridge","POINT(-1.506053 51.074787)",NA,"geography","https://historicengland.org.uk/advice/heritage-at-risk/search-register/list-entry/30386",NA,NA,NA,"Andover-Redbridge canal, Chalk Hill Lock, Horsebridge","https://historicengland.org.uk/listing/the-list/list-entry/1001794","SU 34701 30724",434701,130724,NA,51.0747987345637,-1.5060627654243
1001808,"heritage-at-risk",NA,7500507,"2024-09-26","Fort Southwick, Portsdown Hill, Portsmouth","POINT(-1.108698 50.858324)",NA,"geography","https://historicengland.org.uk/advice/heritage-at-risk/search-register/list-entry/48364",NA,NA,NA,"Fort Southwick
See also HAMPSHIRE 500","https://historicengland.org.uk/listing/the-list/list-entry/1001808","SU 62824 06926",462824,106838,NA,50.8576508623299,-1.10879991749887
1001810,"heritage-at-risk",NA,7500508,"2024-09-26","Gunboat Traverser System, Haslar Gunboat Yard","POINT(-1.126400 50.787429)",NA,"geography","https://historicengland.org.uk/advice/heritage-at-risk/search-register/list-entry/27592",NA,NA,NA,"Gunboat Traverser System","https://historicengland.org.uk/listing/the-list/list-entry/1001810","SZ6165998976",461659,98976,NA,50.7870851250304,-1.12666887409536
1001814,"heritage-at-risk",NA,7502104,"2022-12-21","'Banjo type' native settlement","POINT(-1.241109 51.109140)",NA,"geography","https://historicengland.org.uk/advice/heritage-at-risk/search-register/list-entry/27706",NA,NA,NA,"'Banjo type' native settlement","https://historicengland.org.uk/listing/the-list/list-entry/1001814","SU 53223 34701",453223,134701,NA,51.1091418790967,-1.24111967035475
1001841,"heritage-at-risk",NA,7502105,"2024-09-26","Fort Elson, RNAD, Military Road, Gosport","POINT(-1.150829 50.822542)",NA,"geography","https://historicengland.org.uk/advice/heritage-at-risk/search-register/list-entry/46645",NA,NA,NA,"Fort Elson","https://historicengland.org.uk/listing/the-list/list-entry/1001841","SU 59902 02893",459902,102893,NA,50.8224889042105,-1.15095288815635
1001848,"heritage-at-risk",NA,7505040,"2024-09-26","Roman villa in Bottom Copse","POINT(-1.112488 50.936591)",NA,"geography","https://historicengland.org.uk/advice/heritage-at-risk/search-register/list-entry/31721",NA,NA,NA,"Roman villa in Bottom Copse","https://historicengland.org.uk/listing/the-list/list-entry/1001848","SU 62461 15612",462461,115612,NA,50.9365799443754,-1.11245861981474
1001849,"heritage-at-risk",NA,7500729,"2024-09-26","Fortifications S of Trinity Church","POINT(-1.119839 50.791863)",NA,"geography","https://historicengland.org.uk/advice/heritage-at-risk/search-register/list-entry/30384",NA,NA,NA,"Bastion No 1, Gosport Lines","https://historicengland.org.uk/listing/the-list/list-entry/1001849","SZ6213999513",462139,99513,NA,50.7918624040366,-1.11976977459563
1001852,"heritage-at-risk",NA,7500392,"2024-09-26","No.5 and No.6 Dock, Basin No.1, Portsmouth Dockyard","POINT(-1.109879 50.802474)",NA,"geography","https://historicengland.org.uk/advice/heritage-at-risk/search-register/list-entry/48740",NA,NA,NA,"Portsmouth Dockyard, the Docks","https://historicengland.org.uk/listing/the-list/list-entry/1001852","SU 62808 00626",462808,100626,NA,50.8017979310289,-1.11008956598385
1001856,"heritage-at-risk",NA,7500730,"2024-09-26","Fort Fareham, Newgate Lane, Fareham","POINT(-1.188637 50.840810)",NA,"geography","https://historicengland.org.uk/advice/heritage-at-risk/search-register/list-entry/46643",NA,NA,NA,"Fort Fareham","https://historicengland.org.uk/listing/the-list/list-entry/1001856","SU 57232 04906",457232,104906,NA,50.8408585433905,-1.18854044286508
1001857,"heritage-at-risk",NA,7502106,"2022-12-21","Roman site north west of Woodgarston Farm","POINT(-1.169868 51.298538)",NA,"geography","https://historicengland.org.uk/advice/heritage-at-risk/search-register/list-entry/27702",NA,NA,NA,"Roman site NW of Woodgarston Farm","https://historicengland.org.uk/listing/the-list/list-entry/1001857","SU 57972 55817",457972,155817,NA,51.2985357083715,-1.16988568479534
1001861,"heritage-at-risk",NA,7500509,"2024-09-26","Hilsea Lines - Centre Bastion (excluding casemates referred to as Bastion 4), East Centre Curtain (Railway) west side (formerly known as Bastion no. 5), Hilsea","POINT(-1.063191 50.834186)",NA,"geography","https://historicengland.org.uk/advice/heritage-at-risk/search-register/list-entry/46664",NA,NA,NA,"Hilsea Lines","https://historicengland.org.uk/listing/the-list/list-entry/1001861","SU6602304224",466254,104304,NA,50.8344848615045,-1.06053275902676
1001862,"heritage-at-risk",NA,7500510,"2024-09-26","Fort Widley, Portsmouth","POINT(-1.068213 50.854455)",NA,"geography","https://historicengland.org.uk/advice/heritage-at-risk/search-register/list-entry/2289505",NA,NA,NA,"Fort Widley","https://historicengland.org.uk/listing/the-list/list-entry/1001862","SU 65680 06524",465680,106524,NA,50.8545108358604,-1.06828526985172
1001885,"heritage-at-risk",NA,7500393,"2024-09-26","Castle Hill","POINT(-1.423585 50.950063)",NA,"geography","https://historicengland.org.uk/advice/heritage-at-risk/search-register/list-entry/27921",NA,NA,NA,"Castle Hill","https://historicengland.org.uk/listing/the-list/list-entry/1001885","SU 40586 16895",440586,116895,NA,50.9500667755685,-1.42360859642851
1001903,"heritage-at-risk",NA,7500394,"2021-05-27","Corhampton British village on Corhampton Down","POINT(-1.183626 50.978107)",NA,"geography","https://historicengland.org.uk/advice/heritage-at-risk/search-register/list-entry/30038",NA,NA,NA,"Corhampton British village on Corhampton Down","https://historicengland.org.uk/listing/the-list/list-entry/1001903","SU 57410 20173",457410,120173,NA,50.978113666272,-1.18361569619845
1001940,"heritage-at-risk",NA,7500731,"2024-09-26","The Moat","POINT(-1.484189 51.132998)",NA,"geography","https://historicengland.org.uk/advice/heritage-at-risk/search-register/list-entry/30042",NA,NA,NA,"The Moat","https://historicengland.org.uk/listing/the-list/list-entry/1001940","SU 36183 37213",436183,137213,NA,51.1330547152936,-1.48426141118689
1001942,"heritage-at-risk",NA,7500527,"2024-09-26","Ruins of St Nicholas Chapel, Westbury","POINT(-1.066047 51.011462)",NA,"geography","https://historicengland.org.uk/advice/heritage-at-risk/search-register/list-entry/50119",NA,NA,NA,"St Nicholas Chapel and deserted medieval village, Westbury","https://historicengland.org.uk/listing/the-list/list-entry/1001942","SU 65619 23975",465619,123975,NA,51.0114222970741,-1.06601510106866
1001955,"heritage-at-risk",NA,7502107,"2022-12-21","Oldknow's lime kilns, Marple","POINT(-2.057110 53.392727)",NA,"geography","https://historicengland.org.uk/advice/heritage-at-risk/search-register/list-entry/3533517",NA,NA,NA,"Oldknow's limekilns, Strines Road","https://historicengland.org.uk/listing/the-list/list-entry/1001955","SJ 96295 88438",396295,388438,NA,53.3927630144975,-2.0571773908785
1001963,"heritage-at-risk",NA,7500732,"2024-09-26","Hanwell flight of locks and brick boundary wall of St Bernard's Hospital","POINT(-0.348093 51.504869)",NA,"geography","https://historicengland.org.uk/advice/heritage-at-risk/search-register/list-entry/41920",NA,NA,NA,"Hanwell flight of locks and brick boundary wall of St Bernard's Hospital","https://historicengland.org.uk/listing/the-list/list-entry/1001963","TQ 14726 79786, TQ 14607 79781, TQ 14438 79752, TQ 14823 79748, TQ 14582 79797, TQ 14903 79686, TQ 14984 79609",514823,179748,NA,51.5050101331193,-0.347001577401913
1001973,"heritage-at-risk",NA,7502108,"2024-09-26","Romano-British masonry building and Saxon cemetery, Fordcroft, Orpington","POINT(0.106963 51.388440)",NA,"geography","https://historicengland.org.uk/advice/heritage-at-risk/search-register/list-entry/41811",NA,NA,NA,"Romano-British masonry building and Saxon cemetery, Fordcroft, Orpington","https://historicengland.org.uk/listing/the-list/list-entry/1001973","TQ 46710 67596",546710,167596,NA,51.3884486348519,0.107100445364709
1001976,"heritage-at-risk",NA,7500528,"2024-09-26","Merton Priory (site of), Merantun Way, Colliers Wood","POINT(-0.181209 51.414191)",NA,"geography","https://historicengland.org.uk/advice/heritage-at-risk/search-register/list-entry/43168",NA,NA,NA,"The Augustinian Priory of St Mary at Merton, 271m ENE of Abbey Wall Works","https://historicengland.org.uk/listing/the-list/list-entry/1001976","TQ 26564 69922",526564,169922,NA,51.4141991695153,-0.181436075526038
1001979,"heritage-at-risk",NA,7500529,"2024-09-26","Roman boat at New Guy's House, Bermondsey","POINT(-0.087889 51.502648)",NA,"geography","https://historicengland.org.uk/advice/heritage-at-risk/search-register/list-entry/40364",NA,NA,NA,"Roman riverboat, 136m west of Greenwood Theatre","https://historicengland.org.uk/listing/the-list/list-entry/1001979","TQ 32810 79923",532810,179923,NA,51.5026461458573,-0.0879204504507763
1001982,"heritage-at-risk",NA,7502109,"2024-09-26","Priory and Hospital of St Mary Spital, Steward Street","POINT(-0.077765 51.520811)",NA,"geography","https://historicengland.org.uk/advice/heritage-at-risk/search-register/list-entry/41922",NA,NA,NA,"Priory and Hospital of St Mary Spital","https://historicengland.org.uk/listing/the-list/list-entry/1001982","TQ 33458 81957",533458,181850,NA,51.5198104126467,-0.077861208060846
1001988,"heritage-at-risk",NA,7500733,"2024-09-26","Dagnam Park Farm moated site, Noak Hill, Romford","POINT(0.236674 51.611148)",NA,"geography","https://historicengland.org.uk/advice/heritage-at-risk/search-register/list-entry/43166",NA,NA,NA,"Dagnam Park Farm moated site, Noak Hill, Romford","https://historicengland.org.uk/listing/the-list/list-entry/1001988","TQ 54964 92629",554964,192629,NA,51.6111693435897,0.236617388328985
1001991,"heritage-at-risk",NA,7505041,"2024-09-26","Upminster Tithe Barn, Hall Lane, Upminster RM14","POINT(0.256960 51.566818)",NA,"geography","https://historicengland.org.uk/advice/heritage-at-risk/search-register/list-entry/45261",NA,NA,NA,"Medieval grange barn, 228m south-east of Upminster Court","https://historicengland.org.uk/listing/the-list/list-entry/1001991","TQ 56523 87740",556523,187740,NA,51.5668140218637,0.256935583503177
1001996,"heritage-at-risk",NA,7502110,"2024-09-26","Linear earthworks in Pear Wood, west of Watling Street","POINT(-0.307013 51.628690)",NA,"geography","https://historicengland.org.uk/advice/heritage-at-risk/search-register/list-entry/37743",NA,NA,NA,"Linear earthworks in Pear Wood, W of Watling Street","https://historicengland.org.uk/listing/the-list/list-entry/1001996","TQ 17173 93499, TQ 17328 93599",517328,193599,NA,51.6289811963527,-0.306306254894694
1002001,"heritage-at-risk",NA,7500409,"2024-09-26","Moated site, west bank of River Pinn, near Ickenham (1/2 mile (800m) north west of church)","POINT(-0.454227 51.569781)",NA,"geography","https://historicengland.org.uk/advice/heritage-at-risk/search-register/list-entry/43304",NA,NA,NA,"Medieval moated site 382m south-east of Brackenbury Farm","https://historicengland.org.uk/listing/the-list/list-entry/1002001","TQ 07229 86789",507229,186789,NA,51.5697859385515,-0.454230649995043
1002006,"heritage-at-risk",NA,7500734,"2024-09-26","Manor Farm moat, Ickenham","POINT(-0.440550 51.557013)",NA,"geography","https://historicengland.org.uk/advice/heritage-at-risk/search-register/list-entry/43297",NA,NA,NA,"Ickenham Manor Farm","https://historicengland.org.uk/listing/the-list/list-entry/1002006","TQ0821785386",508217,185377,NA,51.5569062836508,-0.440415093273838
1002007,"heritage-at-risk",NA,7502111,"2024-09-26","Grim's Ditch: section north of Blythwood House","POINT(-0.391728 51.602597)",NA,"geography","https://historicengland.org.uk/advice/heritage-at-risk/search-register/list-entry/45822",NA,NA,NA,"Grim's Ditch: section N of Blythwood House","https://historicengland.org.uk/listing/the-list/list-entry/1002007","TQ 11504 90567",511504,190567,NA,51.6029134943961,-0.391375271618799
1002024,"heritage-at-risk",NA,7500735,"2024-09-26","Iron Age settlement and Roman villa at Warbank, Keston","POINT(0.029397 51.350512)",NA,"geography","https://historicengland.org.uk/advice/heritage-at-risk/search-register/list-entry/44361",NA,NA,NA,"Iron Age settlement and Roman villa at Warbank, Keston","https://historicengland.org.uk/listing/the-list/list-entry/1002024","TQ 41422 63227",541422,163227,NA,51.3505300052736,0.0294177845121737
1002035,"heritage-at-risk",NA,7500410,"2021-05-27","Roman wall in basement of 90 Gracechurch Street","POINT(-0.084206 51.512980)",NA,"geography","https://historicengland.org.uk/advice/heritage-at-risk/search-register/list-entry/36137",NA,NA,NA,"Roman wall in basement of 90 Gracechurch Street","https://historicengland.org.uk/listing/the-list/list-entry/1002035","TQ 33036 81079",533036,181079,NA,51.512981349361,-0.0842305795327583
1002040,"heritage-at-risk",NA,7505038,"2024-09-26","Site of Elsynge Hall, Forty Hall","POINT(-0.066553 51.672467)",NA,"geography","https://historicengland.org.uk/advice/heritage-at-risk/search-register/list-entry/34573",NA,NA,NA,"Elsyng Palace","https://historicengland.org.uk/listing/the-list/list-entry/1002040","TQ3385798871",533857,198796,NA,51.6719963222246,-0.0656545404491733
1002042,"heritage-at-risk",NA,7500530,"2024-09-26","Romano-British site 1000yds (910m) west of East Bedfont parish church","POINT(-0.453375 51.453010)",NA,"geography","https://historicengland.org.uk/advice/heritage-at-risk/search-register/list-entry/36249",NA,NA,NA,"Romano-British site 1000yds (910m) W of East Bedfont parish church","https://historicengland.org.uk/listing/the-list/list-entry/1002042","TQ 07560 73802",507560,173802,NA,51.4529937289923,-0.453414466295853
1002043,"heritage-at-risk",NA,7500531,"2024-09-26","Double ditched enclosure beside A30 road 500yds (460m) west of East Bedfont parish church","POINT(-0.446892 51.451834)",NA,"geography","https://historicengland.org.uk/advice/heritage-at-risk/search-register/list-entry/34574",NA,NA,NA,"Part of a causewayed enclosure, 632m north-east of Mayfield Farm","https://historicengland.org.uk/listing/the-list/list-entry/1002043","TQ 08030 73664",508030,173664,NA,51.4516639688208,-0.446695108763992
1002044,"heritage-at-risk",NA,7500532,"2024-09-26","Grim's Ditch: section extending 1500yds (1370m) north east from Oxhey Lane","POINT(-0.357139 51.621597)",NA,"geography","https://historicengland.org.uk/advice/heritage-at-risk/search-register/list-entry/34575",NA,NA,NA,"Grim's Ditch: section extending 1500yds (1370m) NE from Oxhey Lane","https://historicengland.org.uk/listing/the-list/list-entry/1002044","TQ 13900 92907",513900,192907,NA,51.6234654719999,-0.356034647552542
1002050,"heritage-at-risk",NA,7502112,"2021-12-01","London Wall: remains of Roman and medieval wall from west end of All Hallows Church to 38 Camomile Street","POINT(-0.082656 51.516430)",NA,"geography","https://historicengland.org.uk/advice/heritage-at-risk/search-register/list-entry/40359",NA,NA,NA,"London Wall: remains of Roman and medieval wall from W end of All Hallows Church to 38 Camomile Street","https://historicengland.org.uk/listing/the-list/list-entry/1002050","TQ 33123 81467",533123,181467,NA,51.5164476008481,-0.082831193844608
1002067,"heritage-at-risk",NA,7500411,"2021-12-01","London Wall: section bounding All Hallows Churchyard","POINT(-0.084548 51.516707)",NA,"geography","https://historicengland.org.uk/advice/heritage-at-risk/search-register/list-entry/37739",NA,NA,NA,"London Wall: section bounding All Hallows Churchyard","https://historicengland.org.uk/listing/the-list/list-entry/1002067","TQ 33001 81492",533001,181492,NA,51.5167009707033,-0.0845789689771886
1002079,"heritage-at-risk",NA,7500533,"2024-09-26","Lydney Docks and Harbour, Naas Lane","POINT(-2.508868 51.709915)",NA,"geography","https://historicengland.org.uk/advice/heritage-at-risk/search-register/list-entry/48485",NA,NA,NA,"Lydney Harbour","https://historicengland.org.uk/listing/the-list/list-entry/1002079","SO 64955 01371",364955,201371,NA,51.7099708068851,-2.50859896373379
1002080,"heritage-at-risk",NA,7502113,"2024-09-26","Gunns Mill Furnace","POINT(-2.472923 51.841183)",NA,"geography","https://historicengland.org.uk/advice/heritage-at-risk/search-register/list-entry/46843",NA,NA,NA,"Gunns Mills furnace","https://historicengland.org.uk/listing/the-list/list-entry/1002080","SO 67516 15945",367516,215945,NA,51.8411564123858,-2.47290393622728
1002082,"heritage-at-risk",NA,7505042,"2024-09-26","Tower of the former Church of St Michael, Eastgate Street, Gloucester","POINT(-2.245819 51.865197)",NA,"geography","https://historicengland.org.uk/advice/heritage-at-risk/search-register/list-entry/48383",NA,NA,NA,"Tower of St Michael's Church","https://historicengland.org.uk/listing/the-list/list-entry/1002082","SO8317018540",383170,218541,NA,51.8651911160751,-2.24581951896487
1002091,"heritage-at-risk",NA,7502114,"2024-09-26","Llanthony Priory, remains of precinct wall north of Inner Gatehouse, Llanthony Road, Gloucester","POINT(-2.256931 51.860077)",NA,"geography","https://historicengland.org.uk/advice/heritage-at-risk/search-register/list-entry/49980",NA,NA,NA,"Llanthony Secunda Priory","https://historicengland.org.uk/listing/the-list/list-entry/1002091","SO 82406 17968",382406,217968,NA,51.8600156511035,-2.2568852362977
1002092,"heritage-at-risk",NA,7500736,"2024-09-26","Over earthwork","POINT(-2.272072 51.876274)",NA,"geography","https://historicengland.org.uk/advice/heritage-at-risk/search-register/list-entry/40704",NA,NA,NA,"Over earthwork","https://historicengland.org.uk/listing/the-list/list-entry/1002092","SO 81364 19763",381364,219763,NA,51.8761200854556,-2.27211325912293
1002102,"heritage-at-risk",NA,7505139,"2024-09-26","Portion of remains of Roman wall known as King's Bastion, underneath King's Walk","POINT(-2.245724 51.863407)",NA,"geography","https://historicengland.org.uk/advice/heritage-at-risk/search-register/list-entry/39696",NA,NA,NA,"Remains of Roman wall","https://historicengland.org.uk/listing/the-list/list-entry/1002102","SO 83147 18229, SO 83017 18300, SO 83331 18452, SO 83216 18314",383017,218300,NA,51.8630196607873,-2.24802951350066
1002103,"heritage-at-risk",NA,7505140,"2024-09-26","St Oswald's Priory, Priory Road, Gloucester","POINT(-2.248004 51.869335)",NA,"geography","https://historicengland.org.uk/advice/heritage-at-risk/search-register/list-entry/49275",NA,NA,NA,"St Oswald's Priory (St Catherine's Church)","https://historicengland.org.uk/listing/the-list/list-entry/1002103","SO 83026 18996",383026,218996,NA,51.8692775438791,-2.2479332564595
1002126,"heritage-at-risk",NA,7500534,"2024-09-26","Wickham Bishops timber trestle railway viaduct","POINT(0.642610 51.775028)",NA,"geography","https://historicengland.org.uk/advice/heritage-at-risk/search-register/list-entry/3118359",NA,NA,NA,"Wickham Bishops timber trestle railway viaduct","https://historicengland.org.uk/listing/the-list/list-entry/1002126","TL 82411 11760",582411,211760,NA,51.7747815981251,0.642586514434195
1002134,"heritage-at-risk",NA,7500412,"2024-09-26","Crop mark complex, Orsett","POINT(0.343589 51.505251)",NA,"geography","https://historicengland.org.uk/advice/heritage-at-risk/search-register/list-entry/29562",NA,NA,NA,"Crop mark complex, Orsett","https://historicengland.org.uk/listing/the-list/list-entry/1002134","TQ 62954 81111, TQ 63121 81258, TQ 62684 81178, TQ 62349 81000, TQ 62561 81006",562954,181111,NA,51.5054399334108,0.346574861653019
1002144,"heritage-at-risk",NA,7500535,"2024-09-26","Ruins of Church of St Mary, North of Birch Hall","POINT(0.830282 51.851433)",NA,"geography","https://historicengland.org.uk/advice/heritage-at-risk/search-register/list-entry/46122",NA,NA,NA,"Remains of St Mary's Church","https://historicengland.org.uk/listing/the-list/list-entry/1002144","TL 95035 20777",595035,220777,NA,51.8515019599694,0.830406361696476
1002146,"heritage-at-risk",NA,7500536,"2024-09-26","Crop mark site south of Ardleigh","POINT(0.990384 51.918312)",NA,"geography","https://historicengland.org.uk/advice/heritage-at-risk/search-register/list-entry/26395",NA,NA,NA,"Crop mark site S of Ardleigh","https://historicengland.org.uk/listing/the-list/list-entry/1002146","TM 05834 28780, TM 05657 28361",605834,228780,NA,51.9194837928032,0.991748690261808
1002161,"heritage-at-risk",NA,7500537,"2024-09-26","Site of Waltham Hall","POINT(0.276200 51.895386)",NA,"geography","https://historicengland.org.uk/advice/heritage-at-risk/search-register/list-entry/29848",NA,NA,NA,"Site of Waltham Hall","https://historicengland.org.uk/listing/the-list/list-entry/1002161","TL 56717 24318",556717,224318,NA,51.8953790956122,0.276185555221511
1002193,"heritage-at-risk",NA,7500538,"2024-09-26","St Osyth's Priory","POINT(1.075115 51.799701)",NA,"geography","https://historicengland.org.uk/advice/heritage-at-risk/search-register/list-entry/49527",NA,NA,NA,"Remains of St Osyth's Priory including the ruinous sections of a mid-C16 mansion","https://historicengland.org.uk/listing/the-list/list-entry/1002193","TM1213615689",612136,215724,NA,51.7999050201855,1.07524016515815
1002217,"heritage-at-risk",NA,7505039,"2024-09-26","Colchester Castle","POINT(0.903780 51.891377)",NA,"geography","https://historicengland.org.uk/advice/heritage-at-risk/search-register/list-entry/29734",NA,NA,NA,"Colchester Castle and the Temple of Claudius","https://historicengland.org.uk/listing/the-list/list-entry/1002217","TL9990925391",599909,225390,NA,51.8912009358675,0.903746093677683
1002242,"heritage-at-risk",NA,7500737,"2024-09-26","Newhaven Fort; Caponier, Fort Road","POINT(0.054217 50.783076)",NA,"geography","https://historicengland.org.uk/advice/heritage-at-risk/search-register/list-entry/49358",NA,NA,NA,"Newhaven military fort and lunette battery","https://historicengland.org.uk/listing/the-list/list-entry/1002242","TQ 44902 00198, TQ 45025 00096",544902,100198,NA,50.7832578383434,0.0541249420773421
1002250,"heritage-at-risk",NA,7502115,"2024-09-26","Romano-British iron working site in Beauport Park","POINT(0.539933 50.902606)",NA,"geography","https://historicengland.org.uk/advice/heritage-at-risk/search-register/list-entry/29039",NA,NA,NA,"Romano-British iron working site in Beauport Park","https://historicengland.org.uk/listing/the-list/list-entry/1002250","TQ 78692 14529",578692,114529,NA,50.9025832338789,0.5399795654085
1002254,"heritage-at-risk",NA,7500413,"2024-09-26","Round barrow south of Ditchling Beacon","POINT(-0.109768 50.896425)",NA,"geography","https://historicengland.org.uk/advice/heritage-at-risk/search-register/list-entry/28932",NA,NA,NA,"Round barrow S of Ditchling Beacon","https://historicengland.org.uk/listing/the-list/list-entry/1002254","TQ3302512474",533025,112474,NA,50.896433706526,-0.109800005736872
1002271,"heritage-at-risk",NA,7500414,"2024-09-26","Remains of Manor House, Ore Place, Ore","POINT(0.586053 50.879622)",NA,"geography","https://historicengland.org.uk/advice/heritage-at-risk/search-register/list-entry/46617",NA,NA,NA,"Manor house (remains of), Ore Place","https://historicengland.org.uk/listing/the-list/list-entry/1002271","TQ 82018 12088",582018,112088,NA,50.8796170696113,0.586015586471535
1002280,"heritage-at-risk",NA,7500539,"2024-09-26","High Rocks Camp (see also Tunbridge Wells, Kent)","POINT(0.229660 51.122013)",NA,"geography","https://historicengland.org.uk/advice/heritage-at-risk/search-register/list-entry/31269",NA,NA,NA,"Prehistoric rock shelters and a multivallate hillfort at High Rocks, 309m ESE of High Rocks Inn","https://historicengland.org.uk/listing/the-list/list-entry/1002280","TQ 56129 38250",556129,138250,NA,51.1222641710793,0.229566640449777
1002296,"heritage-at-risk",NA,7500540,"2024-09-26","Austin Friars Chapel, Conduit Hill","POINT(0.734587 50.951816)",NA,"geography","https://historicengland.org.uk/advice/heritage-at-risk/search-register/list-entry/49263",NA,NA,NA,"Austin Friars Chapel","https://historicengland.org.uk/listing/the-list/list-entry/1002296","TQ 92168 20492",592168,120492,NA,50.9518194557268,0.734550279649218
1002301,"heritage-at-risk",NA,7500415,"2024-09-26","Ruins of the former friary church [Grey Friars (Winchelsea Priory)], Friars Road, Winchelsea","POINT(0.710163 50.921657)",NA,"geography","https://historicengland.org.uk/advice/heritage-at-risk/search-register/list-entry/46628",NA,NA,NA,"Grey Friars, Winchelsea","https://historicengland.org.uk/listing/the-list/list-entry/1002301","TQ9058217071",590582,117070,NA,50.9216083502062,0.710208943771652
1002303,"heritage-at-risk",NA,7500416,"2022-12-21","Earthworks and lynchets near Eastwick Barn, Patcham","POINT(-0.127317 50.872357)",NA,"geography","https://historicengland.org.uk/advice/heritage-at-risk/search-register/list-entry/29052",NA,NA,NA,"Earthworks and lynchets near Eastwick Barn, Patcham","https://historicengland.org.uk/listing/the-list/list-entry/1002303","TQ 31849 09770",531849,109770,NA,50.8724006592911,-0.127487351962197
1002314,"heritage-at-risk",NA,7502116,"2024-09-26","Enclosures and industrial workings on Cockfield Fell","POINT(-1.811462 54.619182)",NA,"geography","https://historicengland.org.uk/advice/heritage-at-risk/search-register/list-entry/30297",NA,NA,NA,"Enclosures and industrial workings on Cockfield Fell","https://historicengland.org.uk/listing/the-list/list-entry/1002314","NZ 12419 25002",412419,525002,NA,54.620015246736,-1.8091927074807
1002315,"heritage-at-risk",NA,7500738,"2024-09-26","Stockton & Darlington Railway: Belts Gill embankment, lower part of the northern Etherley Incline","POINT(-1.741210 54.656260)",NA,"geography","https://historicengland.org.uk/advice/heritage-at-risk/search-register/list-entry/26272",NA,NA,NA,"Stockton & Darlington Railway: Belts Gill embankment, lower part of the northern Etherley Incline","https://historicengland.org.uk/listing/the-list/list-entry/1002315","NZ1678629054",416788,529049,NA,54.6562586640129,-1.74130352214019
1002325,"heritage-at-risk",NA,7502117,"2024-09-26","Medieval chapel at Harbour House Farm, Plawsworth","POINT(-1.562076 54.828907)",NA,"geography","https://historicengland.org.uk/advice/heritage-at-risk/search-register/list-entry/49697",NA,NA,NA,"Harbour House Chapel","https://historicengland.org.uk/listing/the-list/list-entry/1002325","NZ 28232 48317",428232,548317,NA,54.8288980126646,-1.56206308524284
1002337,"heritage-at-risk",NA,7500417,"2024-09-26","Prebends Bridge, Durham and Framwellgate","POINT(-1.579458 54.770933)",NA,"geography","https://historicengland.org.uk/advice/heritage-at-risk/search-register/list-entry/49893",NA,NA,NA,"Prebend's Bridge","https://historicengland.org.uk/listing/the-list/list-entry/1002337","NZ 27155 41859",427155,541859,NA,54.7709243465186,-1.5794298473995
1002340,"heritage-at-risk",NA,7500739,"2022-12-21","Church of All Saints, Sockburn Lane","POINT(-1.461644 54.457515)",NA,"geography","https://historicengland.org.uk/advice/heritage-at-risk/search-register/list-entry/48153",NA,NA,NA,"Pre-Conquest and post-Conquest church and graveyard and medieval and post-medieval manors at Sockburn","https://historicengland.org.uk/listing/the-list/list-entry/1002340","NZ3498907101",435020,507030,NA,54.4574543655173,-1.46133036273592
1002341,"heritage-at-risk",NA,7502118,"2024-09-26","Sherburn House Bridge","POINT(-1.525601 54.768774)",NA,"geography","https://historicengland.org.uk/advice/heritage-at-risk/search-register/list-entry/48744",NA,NA,NA,"Sherburnhouse Bridge","https://historicengland.org.uk/listing/the-list/list-entry/1002341","NZ 30620 41641",430620,541641,NA,54.7687668178968,-1.5255952913677
1002346,"heritage-at-risk",NA,7500541,"2024-09-26","Grange and chapel, Bear Park","POINT(-1.623830 54.789582)",NA,"geography","https://historicengland.org.uk/advice/heritage-at-risk/search-register/list-entry/26388",NA,NA,NA,"Grange and Chapel, Bear Park","https://historicengland.org.uk/listing/the-list/list-entry/1002346","NZ 24289 43918",424289,543918,NA,54.7895732650849,-1.62380580546808
1002359,"heritage-at-risk",NA,7502119,"2021-12-01","Packhorse bridge","POINT(-1.724513 54.565326)",NA,"geography","https://historicengland.org.uk/advice/heritage-at-risk/search-register/list-entry/30296",NA,NA,NA,"Packhorse bridge","https://historicengland.org.uk/listing/the-list/list-entry/1002359","NZ 17911 18934",417911,518934,NA,54.5653205159126,-1.72451119540293
1002361,"heritage-at-risk",NA,7500542,"2024-09-26","Lanchester Roman fort (Longovicium)","POINT(-1.753109 54.814073)",NA,"geography","https://historicengland.org.uk/advice/heritage-at-risk/search-register/list-entry/26271",NA,NA,NA,"Lanchester Roman fort (Longovicium)","https://historicengland.org.uk/listing/the-list/list-entry/1002361","NZ 15886 47092, NZ 15849 46613, NZ 16403 46026",415849,546613,NA,54.8141271407489,-1.75490804808492
1002373,"heritage-at-risk",NA,7502120,"2024-09-26","Roman enclosure on Keyneston Down","POINT(-2.106328 50.849760)",NA,"geography","https://historicengland.org.uk/advice/heritage-at-risk/search-register/list-entry/41116",NA,NA,NA,"Roman enclosure on Keyneston Down","https://historicengland.org.uk/listing/the-list/list-entry/1002373","ST 92610 05589",392610,105589,NA,50.8497710587948,-2.1063434409482
1002394,"heritage-at-risk",NA,7500543,"2024-09-26","Length of deer park bank and ditch at Alderholt","POINT(-1.838787 50.914499)",NA,"geography","https://historicengland.org.uk/advice/heritage-at-risk/search-register/list-entry/45014",NA,NA,NA,"Length of deer park bank and ditch at Alderholt","https://historicengland.org.uk/listing/the-list/list-entry/1002394","SU 11425 12783",411425,112783,NA,50.91440038762,-1.83885490034423
1002396,"heritage-at-risk",NA,7500544,"2022-12-21","Milling House, West Farm","POINT(-2.229716 50.796745)",NA,"geography","https://historicengland.org.uk/advice/heritage-at-risk/search-register/list-entry/42471",NA,NA,NA,"Milling House, West Farm","https://historicengland.org.uk/listing/the-list/list-entry/1002396","SY 83906 99713",383906,99713,NA,50.7967530611262,-2.22972281125559
1002397,"heritage-at-risk",NA,7500545,"2024-09-26","Two round barrows 300 yards (270 metres) north west of Double Dykes, Hengistbury Head","POINT(-1.770826 50.720965)",NA,"geography","https://historicengland.org.uk/advice/heritage-at-risk/search-register/list-entry/41234",NA,NA,NA,"Two bowl barrows 405m north west of Barn Cottage, Hengistbury Head","https://historicengland.org.uk/listing/the-list/list-entry/1002397","SZ 16354 91357, SZ 16255 91270",416255,91270,NA,50.7208309830517,-1.77109704730381
1002404,"heritage-at-risk",NA,7500418,"2021-12-01","Dyke south east of Eggardon Hill camp","POINT(-2.641594 50.746175)",NA,"geography","https://historicengland.org.uk/advice/heritage-at-risk/search-register/list-entry/39441",NA,NA,NA,"Dyke SE of Eggardon Hill camp","https://historicengland.org.uk/listing/the-list/list-entry/1002404","SY 54830 94261",354830,94261,NA,50.7461858436408,-2.64158856070809
1002406,"heritage-at-risk",NA,7500758,"2021-12-01","Mesolithic sites near Culver Well","POINT(-2.447125 50.520656)",NA,"geography","https://historicengland.org.uk/advice/heritage-at-risk/search-register/list-entry/35333",NA,NA,NA,"Mesolithic sites near Culver Well","https://historicengland.org.uk/listing/the-list/list-entry/1002406","SY 68491 69382, SY 68413 69082",368413,69082,NA,50.5206636059618,-2.44692228000248
1002409,"heritage-at-risk",NA,7502121,"2022-12-21","Settlement remains north of Maiden Castle","POINT(-2.465612 50.703926)",NA,"geography","https://historicengland.org.uk/advice/heritage-at-risk/search-register/list-entry/42133",NA,NA,NA,"Settlement remains N of Maiden Castle","https://historicengland.org.uk/listing/the-list/list-entry/1002409","SY 67225 89483",367225,89483,NA,50.7040548953422,-2.46548751873761
1002411,"heritage-at-risk",NA,7505047,"2024-09-26","The Verne Citadel","POINT(-2.434887 50.560602)",NA,"geography","https://historicengland.org.uk/advice/heritage-at-risk/search-register/list-entry/41676",NA,NA,NA,"The Verne Citadel","https://historicengland.org.uk/listing/the-list/list-entry/1002411","SY 69327 73224",369327,73224,NA,50.5579601432063,-2.43437202205328
1002412,"heritage-at-risk",NA,7500546,"2024-09-26","Battery 200 yards (180 metres) east of the Naval cemetery","POINT(-2.432693 50.565479)",NA,"geography","https://historicengland.org.uk/advice/heritage-at-risk/search-register/list-entry/41114",NA,NA,NA,"Battery 200yds (180m) E of the Naval cemetery","https://historicengland.org.uk/listing/the-list/list-entry/1002412","SY 69445 74059",369445,74059,NA,50.5654752190107,-2.43277506214422
1002414,"heritage-at-risk",NA,7502122,"2024-09-26","Roman villa south east of East Farm","POINT(-2.581694 50.934760)",NA,"geography","https://historicengland.org.uk/advice/heritage-at-risk/search-register/list-entry/42807",NA,NA,NA,"Roman villa SE of East Farm","https://historicengland.org.uk/listing/the-list/list-entry/1002414","ST 59220 15202",359220,115202,NA,50.9348136147559,-2.58170746629716
1002424,"heritage-at-risk",NA,7500759,"2024-09-26","Roman villa on Little Barton Hill","POINT(-2.106405 50.906228)",NA,"geography","https://historicengland.org.uk/advice/heritage-at-risk/search-register/list-entry/45011",NA,NA,NA,"Roman villa on Little Barton Hill","https://historicengland.org.uk/listing/the-list/list-entry/1002424","ST 92614 11858",392614,111858,NA,50.9061445325981,-2.10641525364677
1002425,"heritage-at-risk",NA,7502123,"2024-09-26","Obelisk on Fir Hill","POINT(-2.274867 50.695685)",NA,"geography","https://historicengland.org.uk/advice/heritage-at-risk/search-register/list-entry/36574",NA,NA,NA,"Obelisk on Fir Hill","https://historicengland.org.uk/listing/the-list/list-entry/1002425","SY 80682 88486",380682,88486,NA,50.6956948170048,-2.27487488791043
1002427,"heritage-at-risk",NA,7500547,"2021-12-01","Field system in Old Park","POINT(-2.192988 50.859653)",NA,"geography","https://historicengland.org.uk/advice/heritage-at-risk/search-register/list-entry/42242",NA,NA,NA,"Field system in Old Park","https://historicengland.org.uk/listing/the-list/list-entry/1002427","ST 86514 06708",386514,106708,NA,50.8597223441698,-2.19297797813499
1002438,"heritage-at-risk",NA,7500419,"2024-09-26","Ancient settlement south west of Incombe Wood","POINT(-2.452422 50.785830)",NA,"geography","https://historicengland.org.uk/advice/heritage-at-risk/search-register/list-entry/36572",NA,NA,NA,"Ancient settlement SW of Incombe Wood","https://historicengland.org.uk/listing/the-list/list-entry/1002438","SY 68168 98770, SY 68208 98539",368208,98539,NA,50.7855444162373,-2.45235225145907
1002450,"heritage-at-risk",NA,7502124,"2024-09-26","Three round barrows on Puddletown Down","POINT(-2.352164 50.776161)",NA,"geography","https://historicengland.org.uk/advice/heritage-at-risk/search-register/list-entry/42130",NA,NA,NA,"Three round barrows on Puddletown Down","https://historicengland.org.uk/listing/the-list/list-entry/1002450","SY 75256 97459, SY 75339 97422, SY 75201 97493",375201,97493,NA,50.7764810697845,-2.35308440852845
1002455,"heritage-at-risk",NA,7500420,"2022-12-21","Camp in Mistlebury Wood","POINT(-2.007287 50.974789)",NA,"geography","https://historicengland.org.uk/advice/heritage-at-risk/search-register/list-entry/35220",NA,NA,NA,"Camp in Mistlebury Wood","https://historicengland.org.uk/listing/the-list/list-entry/1002455","ST 99587 19486",399587,119486,NA,50.9747865141607,-2.0072556339024
1002456,"heritage-at-risk",NA,7500760,"2024-09-26","Earthwork and ancient fields south east of Lyscombe Bottom","POINT(-2.368146 50.811112)",NA,"geography","https://historicengland.org.uk/advice/heritage-at-risk/search-register/list-entry/41110",NA,NA,NA,"Earthwork and ancient fields SE of Lyscombe Bottom","https://historicengland.org.uk/listing/the-list/list-entry/1002456","ST 74480 01516, ST 74634 01561, ST 74227 01549, ST 73961 01002",374227,101549,NA,50.8129114610898,-2.36718397982246
1002459,"heritage-at-risk",NA,7502125,"2021-12-01","Two round barrows south of Cranborne Farm","POINT(-1.943041 50.927453)",NA,"geography","https://historicengland.org.uk/advice/heritage-at-risk/search-register/list-entry/37030",NA,NA,NA,"Two round barrows S of Cranborne Farm","https://historicengland.org.uk/listing/the-list/list-entry/1002459","SU 04066 14115, SU 04133 14339",404066,114115,NA,50.9264755100323,-1.94351931118771
1002463,"heritage-at-risk",NA,7500548,"2024-09-26","Enclosure on Mount Pleasant Hill","POINT(-2.411643 50.708196)",NA,"geography","https://historicengland.org.uk/advice/heritage-at-risk/search-register/list-entry/42238",NA,NA,NA,"Henge Enclosure, Conquer Barrow and Barrow Cemetery","https://historicengland.org.uk/listing/the-list/list-entry/1002463","SY7109589935",371095,89935,NA,50.7083255369976,-2.41072194544116
1002470,"heritage-at-risk",NA,7500421,"2022-12-21","Round barrow north west of Jackman's Cross","POINT(-2.504104 50.764573)",NA,"geography","https://historicengland.org.uk/advice/heritage-at-risk/search-register/list-entry/42803",NA,NA,NA,"Round barrow NW of Jackman's Cross","https://historicengland.org.uk/listing/the-list/list-entry/1002470","SY 64544 96232",364544,96232,NA,50.7645860869564,-2.50410274355048
1002487,"heritage-at-risk",NA,7500422,"2024-09-26","Stantonbury camp and adjacent sections of Wansdyke","POINT(-2.470743 51.371332)",NA,"geography","https://historicengland.org.uk/advice/heritage-at-risk/search-register/list-entry/39692",NA,NA,NA,"Stantonbury camp and adjacent sections of Wansdyke","https://historicengland.org.uk/listing/the-list/list-entry/1002487","ST 67450 63711",367450,163711,NA,51.3715169279633,-2.46899523202193
1002488,"heritage-at-risk",NA,7500423,"2021-12-01","Round barrow north east of Friar Waddon","POINT(-2.502736 50.676727)",NA,"geography","https://historicengland.org.uk/advice/heritage-at-risk/search-register/list-entry/42464",NA,NA,NA,"Round barrow NE of Friar Waddon","https://historicengland.org.uk/listing/the-list/list-entry/1002488","SY 64574 86462",364574,86462,NA,50.6767329326124,-2.50273601369199
1002493,"heritage-at-risk",NA,7502126,"2024-09-26","Stone row, cairn and enclosures near Hook Lane, Erme Valley","POINT(-3.916940 50.471631)",NA,"geography","https://historicengland.org.uk/advice/heritage-at-risk/search-register/list-entry/34232",NA,NA,NA,"Stone row, cairn and enclosures near Hook Lane, Erme Valley","https://historicengland.org.uk/listing/the-list/list-entry/1002493","SX 64069 65280",264069,65280,NA,50.471540634695,-3.91686874714902
1002496,"heritage-at-risk",NA,7500549,"2024-09-26","Enclosure south west of Hingston Rocks","POINT(-3.746177 50.657743)",NA,"geography","https://historicengland.org.uk/advice/heritage-at-risk/search-register/list-entry/40462",NA,NA,NA,"Enclosure SW of Hingston Rocks","https://historicengland.org.uk/listing/the-list/list-entry/1002496","SX 76670 85686",276670,85686,NA,50.6577537743788,-3.74615821826755
1002502,"heritage-at-risk",NA,7500424,"2024-09-26","Rider's Rings (The Rings)","POINT(-3.862899 50.464067)",NA,"geography","https://historicengland.org.uk/advice/heritage-at-risk/search-register/list-entry/41258",NA,NA,NA,"Riders Rings (The Rings)","https://historicengland.org.uk/listing/the-list/list-entry/1002502","SX 67889 64294",267889,64294,NA,50.463552168951,-3.86272040701616
1002503,"heritage-at-risk",NA,7505146,"2024-09-26","Hembury Castle","POINT(-4.240052 50.938999)",NA,"geography","https://historicengland.org.uk/advice/heritage-at-risk/search-register/list-entry/33126",NA,NA,NA,"Hembury Castle","https://historicengland.org.uk/listing/the-list/list-entry/1002503","SS 42713 17905",242713,117905,NA,50.9390789415484,-4.24001958370548
1002505,"heritage-at-risk",NA,7500425,"2024-09-26","Three enclosed hut groups, Black Tor, Shipley Bridge","POINT(-3.861912 50.455008)",NA,"geography","https://historicengland.org.uk/advice/heritage-at-risk/search-register/list-entry/44032",NA,NA,NA,"Three enclosed hut groups, Black Tor, Shipley Bridge","https://historicengland.org.uk/listing/the-list/list-entry/1002505","SX 67999 63325, SX 67913 63375, SX 67806 63366",267999,63325,NA,50.4548672721534,-3.86082952780884
1002516,"heritage-at-risk",NA,7502127,"2024-09-26","Pound and hut circles north of Hawk's Tor","POINT(-4.038798 50.447687)",NA,"geography","https://historicengland.org.uk/advice/heritage-at-risk/search-register/list-entry/34139",NA,NA,NA,"Pound and hut circles N of Hawk's Tor","https://historicengland.org.uk/listing/the-list/list-entry/1002516","SX 55342 62856",255342,62856,NA,50.4476652899355,-4.03883027775956
1002520,"heritage-at-risk",NA,7500426,"2024-09-26","Hut circles west of Saddlesborough","POINT(-4.037830 50.452225)",NA,"geography","https://historicengland.org.uk/advice/heritage-at-risk/search-register/list-entry/40476",NA,NA,NA,"Hut circles W of Saddlesborough","https://historicengland.org.uk/listing/the-list/list-entry/1002520","SX 55435 63357",255435,63357,NA,50.4521909135076,-4.03771475950251
1002522,"heritage-at-risk",NA,7500427,"2024-09-26","Four round barrows on Wigford Down","POINT(-4.044685 50.467072)",NA,"geography","https://historicengland.org.uk/advice/heritage-at-risk/search-register/list-entry/34259",NA,NA,NA,"Four round barrows on Wigford Down","https://historicengland.org.uk/listing/the-list/list-entry/1002522","SX 54938 65090, SX 55065 64975, SX 54989 65018, SX 54956 65032",254956,65032,NA,50.4671263929203,-4.045106821096
1002523,"heritage-at-risk",NA,7502128,"2024-09-26","Settlement on Wigford Down south of Durance","POINT(-4.046211 50.469774)",NA,"geography","https://historicengland.org.uk/advice/heritage-at-risk/search-register/list-entry/34260",NA,NA,NA,"Settlement on Wigford Down S of Durance","https://historicengland.org.uk/listing/the-list/list-entry/1002523","SX 54912 65326",254912,65326,NA,50.4697577718677,-4.04584045649337
1002529,"heritage-at-risk",NA,7500550,"2024-09-26","Settlement west of Holwell Tor","POINT(-3.769080 50.584221)",NA,"geography","https://historicengland.org.uk/advice/heritage-at-risk/search-register/list-entry/45513",NA,NA,NA,"Settlement W of Holwell Tor","https://historicengland.org.uk/listing/the-list/list-entry/1002529","SX 74852 77552",274852,77552,NA,50.5842529385359,-3.7691188198718
1002531,"heritage-at-risk",NA,7500761,"2024-09-26","Settlement on Smallacombe Rocks","POINT(-3.758935 50.590256)",NA,"geography","https://historicengland.org.uk/advice/heritage-at-risk/search-register/list-entry/39367",NA,NA,NA,"Settlement on Smallacombe Rocks","https://historicengland.org.uk/listing/the-list/list-entry/1002531","SX 75583 78211",275583,78211,NA,50.5903328018398,-3.75901917204342
1002533,"heritage-at-risk",NA,7500762,"2021-12-01","Camp south of Birch Ham Wood","POINT(-3.930298 51.104323)",NA,"geography","https://historicengland.org.uk/advice/heritage-at-risk/search-register/list-entry/40267",NA,NA,NA,"Camp S of Birch Ham Wood","https://historicengland.org.uk/listing/the-list/list-entry/1002533","SS 64954 35702, SS 64952 35619",264954,135702,NA,51.1046647721209,-3.93030694115348
1002536,"heritage-at-risk",NA,7500428,"2024-09-26","Enclosure and hut circles east of Huntingdon Ford","POINT(-3.880155 50.480143)",NA,"geography","https://historicengland.org.uk/advice/heritage-at-risk/search-register/list-entry/36057",NA,NA,NA,"Enclosure and hut circles E of Huntingdon Ford","https://historicengland.org.uk/listing/the-list/list-entry/1002536","SX 66697 66168",266697,66168,NA,50.4801261029344,-3.88017363502776
1002537,"heritage-at-risk",NA,7500429,"2024-09-26","Hut circle and fields, Bishop's Mead","POINT(-3.876019 50.474316)",NA,"geography","https://historicengland.org.uk/advice/heritage-at-risk/search-register/list-entry/32363",NA,NA,NA,"Hut circle and fields, Bishop's Mead","https://historicengland.org.uk/listing/the-list/list-entry/1002537","SX 66979 65527",266979,65527,NA,50.47442877917,-3.87597314370984
1002544,"heritage-at-risk",NA,7500551,"2024-09-26","Fort Stamford","POINT(-4.119276 50.355150)",NA,"geography","https://historicengland.org.uk/advice/heritage-at-risk/search-register/list-entry/42557",NA,NA,NA,"Fort Stamford","https://historicengland.org.uk/listing/the-list/list-entry/1002544","SX 49338 52730",249338,52730,NA,50.3551509835058,-4.11927068408292
1002548,"heritage-at-risk",NA,7502129,"2024-09-26","Two hut circles south of Catstor Down","POINT(-4.055958 50.470563)",NA,"geography","https://historicengland.org.uk/advice/heritage-at-risk/search-register/list-entry/44200",NA,NA,NA,"Two hut circles S of Catstor Down","https://historicengland.org.uk/listing/the-list/list-entry/1002548","SX 54152 65438, SX 54245 65435",254245,65435,NA,50.4705718242734,-4.05527545139687
1002550,"heritage-at-risk",NA,7502130,"2024-09-26","Settlement on Wigford Down","POINT(-4.055512 50.467174)",NA,"geography","https://historicengland.org.uk/advice/heritage-at-risk/search-register/list-entry/45671",NA,NA,NA,"Settlement on Wigford Down","https://historicengland.org.uk/listing/the-list/list-entry/1002550","SX 54219 65058",254219,65058,NA,50.4671771555819,-4.05549460526604
1002558,"heritage-at-risk",NA,7500763,"2024-09-26","Roman villa 300 yards (270 metres) SSW of Holcombe Farm","POINT(-2.971425 50.731130)",NA,"geography","https://historicengland.org.uk/advice/heritage-at-risk/search-register/list-entry/41654",NA,NA,NA,"Roman villa 300yds (270m) SSW of Holcombe Farm","https://historicengland.org.uk/listing/the-list/list-entry/1002558","SY 31551 92840",331551,92840,NA,50.73112662891,-2.97123028921967
1002566,"heritage-at-risk",NA,7502131,"2024-09-26","Two round barrows and cairn cemetery, Ilkerton Ridge","POINT(-3.833981 51.189739)",NA,"geography","https://historicengland.org.uk/advice/heritage-at-risk/search-register/list-entry/36491",NA,NA,NA,"Two round barrows and cairn cemetery, Ilkerton Ridge","https://historicengland.org.uk/listing/the-list/list-entry/1002566","SS 71911 44989, SS 71963 44990",271911,144989,NA,51.1897288469399,-3.8342996111177
1002583,"heritage-at-risk",NA,7500764,"2024-09-26","Two round barrows on Cheriton Ridge","POINT(-3.797661 51.182248)",NA,"geography","https://historicengland.org.uk/advice/heritage-at-risk/search-register/list-entry/35875",NA,NA,NA,"Two round barrows on Cheriton Ridge","https://historicengland.org.uk/listing/the-list/list-entry/1002583","SS 74267 44501, SS 74702 43546",274267,144501,NA,51.1858665727085,-3.80043293722387
1002584,"heritage-at-risk",NA,7502132,"2024-09-26","Fort Bovisand","POINT(-4.126404 50.336816)",NA,"geography","https://historicengland.org.uk/advice/heritage-at-risk/search-register/list-entry/409228",NA,NA,NA,"Fort Bovisand","https://historicengland.org.uk/listing/the-list/list-entry/1002584","SX 48772 50706",248772,50706,NA,50.3368159648162,-4.12640851275179
1002585,"heritage-at-risk",NA,7500765,"2024-09-26","Watch House battery and ditch","POINT(-4.117732 50.342347)",NA,"geography","https://historicengland.org.uk/advice/heritage-at-risk/search-register/list-entry/408111",NA,NA,NA,"Staddon Heights Defences including Fort Staddon Fort, Brownhill Battery, Watch House Battery, Staddon Heights Battery, Staddon Battery and associated features and structures","https://historicengland.org.uk/listing/the-list/list-entry/1002585","SX4935851371",249194,50927,NA,50.3389103773482,-4.12057135434978
1002586,"heritage-at-risk",NA,7500430,"2024-09-26","Two round barrows on Ridding Down","POINT(-4.000231 50.434179)",NA,"geography","https://historicengland.org.uk/advice/heritage-at-risk/search-register/list-entry/40084",NA,NA,NA,"Two round barrows on Ridding Down","https://historicengland.org.uk/listing/the-list/list-entry/1002586","SX 58045 61359, SX 58043 61208",258043,61208,NA,50.4335138870604,-4.00018755353215
1002596,"heritage-at-risk",NA,7500552,"2024-09-26","Hut circle 1000 yards (915 metres) east of Coleland Bridge","POINT(-4.006788 50.427584)",NA,"geography","https://historicengland.org.uk/advice/heritage-at-risk/search-register/list-entry/41719",NA,NA,NA,"Hut circle 1000yds (915m) E of Coleland Bridge","https://historicengland.org.uk/listing/the-list/list-entry/1002596","SX 57558 60563",257558,60563,NA,50.4275993170259,-4.00676699934585
1002601,"heritage-at-risk",NA,7500766,"2024-09-26","Hut circle and field system north west of Saddle Bridge","POINT(-3.888823 50.533870)",NA,"geography","https://historicengland.org.uk/advice/heritage-at-risk/search-register/list-entry/42066",NA,NA,NA,"Hut circle and field system NW of Saddle Bridge","https://historicengland.org.uk/listing/the-list/list-entry/1002601","SX 66236 72159",266236,72159,NA,50.5338687776185,-3.88881532705345
1002613,"heritage-at-risk",NA,7500553,"2024-09-26","Agaton Fort, Plymouth","POINT(-4.175070 50.415929)",NA,"geography","https://historicengland.org.uk/advice/heritage-at-risk/search-register/list-entry/47806",NA,NA,NA,"Agaton fort","https://historicengland.org.uk/listing/the-list/list-entry/1002613","SX 45569 59526",245569,59526,NA,50.4152473549876,-4.17500629579604
1002614,"heritage-at-risk",NA,7500554,"2024-09-26","Knowle Battery","POINT(-4.164606 50.416292)",NA,"geography","https://historicengland.org.uk/advice/heritage-at-risk/search-register/list-entry/3118353",NA,NA,NA,"Knowle battery","https://historicengland.org.uk/listing/the-list/list-entry/1002614","SX 46303 59556",246303,59556,NA,50.4157095916672,-4.16469522817231
1002615,"heritage-at-risk",NA,7500767,"2024-09-26","Woodland Fort, Crownhill Road, Crownhill","POINT(-4.154185 50.413661)",NA,"geography","https://historicengland.org.uk/advice/heritage-at-risk/search-register/list-entry/49866",NA,NA,NA,"Woodland fort","https://historicengland.org.uk/listing/the-list/list-entry/1002615","SX 47039 59241",247039,59241,NA,50.413070998222,-4.15421511625577
1002620,"heritage-at-risk",NA,7500431,"2024-09-26","Hut circles on Hedge Down","POINT(-3.794231 50.592928)",NA,"geography","https://historicengland.org.uk/advice/heritage-at-risk/search-register/list-entry/44854",NA,NA,NA,"Hut circles on Hedge Down","https://historicengland.org.uk/listing/the-list/list-entry/1002620","SX 73082 78549, SX 73109 78568",273109,78568,NA,50.5930087183983,-3.79407370355755
1002630,"heritage-at-risk",NA,7500555,"2024-09-26","Deserted medieval site north of Okehampton camp","POINT(-4.005122 50.722007)",NA,"geography","https://historicengland.org.uk/advice/heritage-at-risk/search-register/list-entry/38393",NA,NA,NA,"Deserted medieval site N of Okehampton camp","https://historicengland.org.uk/listing/the-list/list-entry/1002630","SX 58561 93294",258561,93294,NA,50.7220091151873,-4.00511067421756
1002636,"heritage-at-risk",NA,7500432,"2024-09-26","Camp 325 yards (300 metres) south east of Archerton","POINT(-3.921875 50.593642)",NA,"geography","https://historicengland.org.uk/advice/heritage-at-risk/search-register/list-entry/35189",NA,NA,NA,"Camp 325yds (300m) SE of Archerton","https://historicengland.org.uk/listing/the-list/list-entry/1002636","SX 64067 78866",264067,78866,NA,50.5936499152536,-3.92185398285813
1002637,"heritage-at-risk",NA,7500433,"2024-09-26","Lee Moor Tramway Bridge","POINT(-4.083581 50.392703)",NA,"geography","https://historicengland.org.uk/advice/heritage-at-risk/search-register/list-entry/43049",NA,NA,NA,"Lee Moor Tramway Bridge","https://historicengland.org.uk/listing/the-list/list-entry/1002637","SX5199756835",251997,56835,NA,50.3927186916657,-4.08353453754525
1002640,"heritage-at-risk",NA,7500768,"2022-12-21","Cross ridge dyke on Godborough Castle earthwork north west of Turner's Wood","POINT(-4.230570 51.024333)",NA,"geography","https://historicengland.org.uk/advice/heritage-at-risk/search-register/list-entry/36537",NA,NA,NA,"Cross ridge dyke on Godborough Castle earthwork NW of Turner's Wood","https://historicengland.org.uk/listing/the-list/list-entry/1002640","SS 43667 27353",243667,127353,NA,51.0242331224621,-4.2305189508713
1002645,"heritage-at-risk",NA,7500556,"2024-09-26","Earthwork enclosure 330 yards (300 metres) south west of Three Horse Shoes Inn","POINT(-3.558846 50.753382)",NA,"geography","https://historicengland.org.uk/advice/heritage-at-risk/search-register/list-entry/41643",NA,NA,NA,"Earthwork enclosure 330yds (300m) SW of Three Horse Shoes Inn","https://historicengland.org.uk/listing/the-list/list-entry/1002645","SX 90135 96025",290135,96025,NA,50.7533932773663,-3.55882326742335
1002654,"heritage-at-risk",NA,7500434,"2024-09-26","Deserted medieval site 400 metres west of Okehampton camp","POINT(-4.012488 50.719071)",NA,"geography","https://historicengland.org.uk/advice/heritage-at-risk/search-register/list-entry/37077",NA,NA,NA,"Deserted medieval site 1/4 mile (400m) W of Okehampton camp","https://historicengland.org.uk/listing/the-list/list-entry/1002654","SX 58030 92979",258030,92979,NA,50.7190485858085,-4.01250701527388
1002657,"heritage-at-risk",NA,7502133,"2024-09-26","Earthwork (possibly civil war) on Bovey Heath","POINT(-3.666928 50.576578)",NA,"geography","https://historicengland.org.uk/advice/heritage-at-risk/search-register/list-entry/45734",NA,NA,NA,"Earthwork (possibly civil war) on Bovey Heath","https://historicengland.org.uk/listing/the-list/list-entry/1002657","SX 82099 76607, SX 82046 76477",282046,76477,NA,50.5760886396887,-3.66720697776513
1002664,"heritage-at-risk",NA,7500557,"2024-09-26","Hut enclosure north of Old Hill","POINT(-3.877892 50.452959)",NA,"geography","https://historicengland.org.uk/advice/heritage-at-risk/search-register/list-entry/42511",NA,NA,NA,"Hut enclosure N of Old Hill","https://historicengland.org.uk/listing/the-list/list-entry/1002664","SX 66783 63145",266783,63145,NA,50.4529742668397,-3.87788527593783
1002665,"heritage-at-risk",NA,7500769,"2024-09-26","Enclosure south east of Dockwell Hole","POINT(-3.836645 50.462064)",NA,"geography","https://historicengland.org.uk/advice/heritage-at-risk/search-register/list-entry/44260",NA,NA,NA,"Enclosure SE of Dockwell Hole","https://historicengland.org.uk/listing/the-list/list-entry/1002665","SX 69736 64085",269736,64085,NA,50.4620871263647,-3.83663882061735
1002667,"heritage-at-risk",NA,7500770,"2024-09-26","Gawton arsenic mine and flue","POINT(-4.183666 50.499208)",NA,"geography","https://historicengland.org.uk/advice/heritage-at-risk/search-register/list-entry/34930",NA,NA,NA,"Gawton arsenic mine and flue","https://historicengland.org.uk/listing/the-list/list-entry/1002667","SX 45252 68851",245252,68851,NA,50.4989634930926,-4.18332092450518
1002668,"heritage-at-risk",NA,7502134,"2024-09-26","Romano-British villa, Downes, near Crediton","POINT(-3.632063 50.780917)",NA,"geography","https://historicengland.org.uk/advice/heritage-at-risk/search-register/list-entry/42846",NA,NA,NA,"Romano-British villa, Downes, near Crediton","https://historicengland.org.uk/listing/the-list/list-entry/1002668","SX 85037 99198",285037,99198,NA,50.7809268829497,-3.63205489177424
1002678,"heritage-at-risk",NA,7500558,"2021-05-27","Hod Hill camp and Lydsbury Rings","POINT(-2.205249 50.895258)",NA,"geography","https://historicengland.org.uk/advice/heritage-at-risk/search-register/list-entry/44874",NA,NA,NA,"Hod Hill camp and Lydsbury Rings","https://historicengland.org.uk/listing/the-list/list-entry/1002678","ST 85676 10627",385676,110627,NA,50.8949431201959,-2.20503896684829
1002685,"heritage-at-risk",NA,7505043,"2024-09-26","Two Gates (remains of chambered long barrow)","POINT(-2.632324 50.741922)",NA,"geography","https://historicengland.org.uk/advice/heritage-at-risk/search-register/list-entry/42095",NA,NA,NA,"Chambered tomb 900m south west of Manor Farm","https://historicengland.org.uk/listing/the-list/list-entry/1002685","SY 55480 93782",355480,93782,NA,50.7419289745882,-2.63231825928546
1002687,"heritage-at-risk",NA,7500435,"2024-09-26","Two conjoined bowl barrows 550 metres north east of Manor Farm, Pound Hill","POINT(-2.532190 50.715659)",NA,"geography","https://historicengland.org.uk/advice/heritage-at-risk/search-register/list-entry/45665",NA,NA,NA,"Two conjoined bowl barrows 550m north east of Manor Farm","https://historicengland.org.uk/listing/the-list/list-entry/1002687","SY 62523 90806",362523,90806,NA,50.7156666995974,-2.53220397624776
1002694,"heritage-at-risk",NA,7505048,"2024-09-26","Hampton stone circle","POINT(-2.572949 50.676785)",NA,"geography","https://historicengland.org.uk/advice/heritage-at-risk/search-register/list-entry/34415",NA,NA,NA,"Hampton stone circle","https://historicengland.org.uk/listing/the-list/list-entry/1002694","SY 59613 86505",359613,86505,NA,50.6767954838667,-2.57294869613856
1002696,"heritage-at-risk",NA,7500559,"2024-09-26","Group of barrows near Big Wood","POINT(-2.557192 50.704282)",NA,"geography","https://historicengland.org.uk/advice/heritage-at-risk/search-register/list-entry/44196",NA,NA,NA,"Group of barrows near Big Wood","https://historicengland.org.uk/listing/the-list/list-entry/1002696","SY 60549 89450, SY 60637 89468, SY 60611 89459, SY 60709 89533, SY 60690 89556, SY 60827 89561, SY 60966 89701, SY 60995 89721",360709,89533,NA,50.7040993842779,-2.55776104168681
1002698,"heritage-at-risk",NA,7502135,"2024-09-26","Rufus Castle, Church Ope Road, Easton","POINT(-2.429270 50.539190)",NA,"geography","https://historicengland.org.uk/advice/heritage-at-risk/search-register/list-entry/46823",NA,NA,NA,"Rufus Castle","https://historicengland.org.uk/listing/the-list/list-entry/1002698","SY 69682 71134",369682,71134,NA,50.5391840267681,-2.42918984808301
1002699,"heritage-at-risk",NA,7500771,"2022-12-21","Group of round barrows on Shorn Hill and Bronkham Hill","POINT(-2.527724 50.680668)",NA,"geography","https://historicengland.org.uk/advice/heritage-at-risk/search-register/list-entry/33523",NA,NA,NA,"Group of round barrows on Shorn Hill and Bronkham Hill","https://historicengland.org.uk/listing/the-list/list-entry/1002699","SY 62024 87413, SY 62099 87388, SY 62135 87376, SY 62360 87366, SY 62173 87354, SY 62274 87332, SY 62271 87306, SY 62165 87289, SY 62979 87289, SY 62984 87249, SY 62309 87238, SY 62988 87214, SY 62357 87177, SY 62395 87148, SY 62487 87060, SY 62526 87049, SY 62499 87036, SY 62714 87036, SY 62516 87036, SY 62609 86984, SY 62617 86966, SY 62623 86943, SY 62645 86918, SY 62652 86895, SY 62684 86871, SY 62725 86835, SY 62759 86821, SY 62779 86809, SY 62817 86789, SY 62926 86742, SY 63088 86662, SY 63102 86653, SY 63484 86650, SY 63241 86646, SY 63164 86642, SY 63302 86638, SY 63323 86610",362684,86871,NA,50.6802923109171,-2.52952481214873
1002703,"heritage-at-risk",NA,7500436,"2024-09-26","Bindon Abbey (site)","POINT(-2.208001 50.680427)",NA,"geography","https://historicengland.org.uk/advice/heritage-at-risk/search-register/list-entry/1644467",NA,NA,NA,"Bindon Abbey (site)","https://historicengland.org.uk/listing/the-list/list-entry/1002703","SY 85400 86771",385400,86771,NA,50.6804109179497,-2.20800795673914
1002705,"heritage-at-risk",NA,7500437,"2024-09-26","Bindon Hill camp","POINT(-2.235531 50.621605)",NA,"geography","https://historicengland.org.uk/advice/heritage-at-risk/search-register/list-entry/35205",NA,NA,NA,"Bindon Hill camp","https://historicengland.org.uk/listing/the-list/list-entry/1002705","SY 83530 80255",383530,80255,NA,50.6217641709907,-2.23418345076571
1002707,"heritage-at-risk",NA,7502136,"2024-09-26","Two long barrows on Gussage Hill","POINT(-2.009720 50.922553)",NA,"geography","https://historicengland.org.uk/advice/heritage-at-risk/search-register/list-entry/41434",NA,NA,NA,"Two long barrows on Gussage Hill","https://historicengland.org.uk/listing/the-list/list-entry/1002707","ST 99469 13601, ST 99303 13828",399469,113601,NA,50.9218666086989,-2.0089258715237
1002710,"heritage-at-risk",NA,7500772,"2024-09-26","Abbotsbury Castle (camp)","POINT(-2.630142 50.676966)",NA,"geography","https://historicengland.org.uk/advice/heritage-at-risk/search-register/list-entry/35876",NA,NA,NA,"Abbotsbury Castle (camp)","https://historicengland.org.uk/listing/the-list/list-entry/1002710","SY 55563 86582",355563,86582,NA,50.6771919295173,-2.63027295000066
1002713,"heritage-at-risk",NA,7500560,"2024-09-26","Bradford Barrow","POINT(-2.028373 50.841469)",NA,"geography","https://historicengland.org.uk/advice/heritage-at-risk/search-register/list-entry/35094",NA,NA,NA,"Bradford Barrow","https://historicengland.org.uk/listing/the-list/list-entry/1002713","ST 98098 04662",398098,104662,NA,50.8414802084922,-2.02838160100134
1002715,"heritage-at-risk",NA,7500773,"2024-09-26","Barn and outbuilding range, Tarrant Abbey Farm","POINT(-2.114155 50.830017)",NA,"geography","https://historicengland.org.uk/advice/heritage-at-risk/search-register/list-entry/48489",NA,NA,NA,"Tarrant Abbey, site of, and tithe barn at Abbey Farm","https://historicengland.org.uk/listing/the-list/list-entry/1002715","ST 92059 03395, ST 92140 03403",392059,103395,NA,50.8300341736848,-2.11412210725852
1002718,"heritage-at-risk",NA,7502137,"2022-12-21","Buzbury Rings","POINT(-2.117214 50.852927)",NA,"geography","https://historicengland.org.uk/advice/heritage-at-risk/search-register/list-entry/38301",NA,NA,NA,"Causewayed enclosure and Iron Age defended settlement with outworks called Buzbury Rings","https://historicengland.org.uk/listing/the-list/list-entry/1002718","ST 91950 05977, ST 91815 05948",391815,105948,NA,50.8529884858441,-2.11764448948988
1002719,"heritage-at-risk",NA,7500438,"2024-09-26","Sturminster Newton Castle","POINT(-2.308877 50.919999)",NA,"geography","https://historicengland.org.uk/advice/heritage-at-risk/search-register/list-entry/49118",NA,NA,NA,"Sturminster Castle","https://historicengland.org.uk/listing/the-list/list-entry/1002719","ST 78394 13421",378394,113421,NA,50.9198394777285,-2.30874441752462
1002722,"heritage-at-risk",NA,7500439,"2024-09-26","Long barrows and group of round barrows on Bokerley Down","POINT(-1.942701 50.970262)",NA,"geography","https://historicengland.org.uk/advice/heritage-at-risk/search-register/list-entry/44882",NA,NA,NA,"Long barrows and group of round barrows on Bokerly Down","https://historicengland.org.uk/listing/the-list/list-entry/1002722","SU 04128 18955, SU 04078 19128, SU 04121 19060, SU 04155 19007, SU 04150 18926, SU 03938 19508, SU 04198 18719, SU 04176 18700, SU 04154 18770",404121,119060,NA,50.970942113505,-1.94268234896689
1002724,"heritage-at-risk",NA,7500774,"2024-09-26","Castle Hill","POINT(-2.205643 51.004621)",NA,"geography","https://historicengland.org.uk/advice/heritage-at-risk/search-register/list-entry/45674",NA,NA,NA,"Medieval fortified house at Castle Hill","https://historicengland.org.uk/listing/the-list/list-entry/1002724","ST 85669 22826",385669,122826,NA,51.0046394860391,-2.2056225377566
1002726,"heritage-at-risk",NA,7500775,"2022-12-21","St Leonard's Chapel","POINT(-2.156600 50.857665)",NA,"geography","https://historicengland.org.uk/advice/heritage-at-risk/search-register/list-entry/40086",NA,NA,NA,"St Leonard's Chapel","https://historicengland.org.uk/listing/the-list/list-entry/1002726","ST 89074 06474",389074,106474,NA,50.8576726695061,-2.15659866321508
1002730,"heritage-at-risk",NA,7500561,"2021-12-01","Discontinuous surviving sections of Roman aqueduct","POINT(-2.478817 50.726390)",NA,"geography","https://historicengland.org.uk/advice/heritage-at-risk/search-register/list-entry/39424",NA,NA,NA,"Discontinuous surviving sections of Roman aqueduct","https://historicengland.org.uk/listing/the-list/list-entry/1002730","SY 64738 93338, SY 65146 93313, SY 65795 92825, SY 65550 91696, SY 67036 91612, SY 67033 91121",367033,91121,NA,50.7187735264602,-2.46835314609103
1002731,"heritage-at-risk",NA,7500562,"2021-12-01","Two round barrows on Wears Hill","POINT(-2.623437 50.674032)",NA,"geography","https://historicengland.org.uk/advice/heritage-at-risk/search-register/list-entry/41657",NA,NA,NA,"Two round barrows on Wears Hill","https://historicengland.org.uk/listing/the-list/list-entry/1002731","SY 55991 86231, SY 56101 86224",355991,86231,NA,50.6740682739146,-2.62417403699389
1002734,"heritage-at-risk",NA,7502138,"2021-12-01","Earthwork 80 yards (70 metres) long, north west of Coombe Bottom","POINT(-2.648616 50.741147)",NA,"geography","https://historicengland.org.uk/advice/heritage-at-risk/search-register/list-entry/44884",NA,NA,NA,"Earthwork 80yds (70m) long NW of Coombe Bottom","https://historicengland.org.uk/listing/the-list/list-entry/1002734","SY 54329 93706",354329,93706,NA,50.7411559549812,-2.64862009014208
1002735,"heritage-at-risk",NA,7505044,"2024-09-26","Dyke on Haydon Down","POINT(-2.642051 50.739064)",NA,"geography","https://historicengland.org.uk/advice/heritage-at-risk/search-register/list-entry/34872",NA,NA,NA,"Dyke on Haydon Down","https://historicengland.org.uk/listing/the-list/list-entry/1002735","SY 54791 93472",354791,93472,NA,50.7390880565678,-2.64204422641996
1002740,"heritage-at-risk",NA,7500776,"2021-12-01","Earthworks on Gussage Down","POINT(-2.010869 50.925265)",NA,"geography","https://historicengland.org.uk/advice/heritage-at-risk/search-register/list-entry/36553",NA,NA,NA,"Earthworks on Gussage Down","https://historicengland.org.uk/listing/the-list/list-entry/1002740","ST 98947 14927, ST 99277 13839, ST 99216 13725, ST 98953 14395, ST 99551 13458",398953,114395,NA,50.9290057277141,-2.01626947634488
1002741,"heritage-at-risk",NA,7502139,"2024-09-26","Two round barrows on Gussage Down","POINT(-2.022836 50.924829)",NA,"geography","https://historicengland.org.uk/advice/heritage-at-risk/search-register/list-entry/40985",NA,NA,NA,"Two round barrows on Gussage Down","https://historicengland.org.uk/listing/the-list/list-entry/1002741","ST 98359 13893, ST 98769 14013",398359,113893,NA,50.924490065557,-2.02471912252933
1002750,"heritage-at-risk",NA,7502140,"2024-09-26","Four round barrows north west of Blagdon Barn","POINT(-2.544364 50.697538)",NA,"geography","https://historicengland.org.uk/advice/heritage-at-risk/search-register/list-entry/35208",NA,NA,NA,"Four round barrows NW of Blagdon Barn","https://historicengland.org.uk/listing/the-list/list-entry/1002750","SY 61675 88912, SY 61641 89058, SY 61654 88512, SY 61635 88487",361641,89058,NA,50.6998904675876,-2.54451420361931
1002751,"heritage-at-risk",NA,7500777,"2024-09-26","Round barrow south west of village","POINT(-2.534672 50.699005)",NA,"geography","https://historicengland.org.uk/advice/heritage-at-risk/search-register/list-entry/45676",NA,NA,NA,"Round barrow SW of village","https://historicengland.org.uk/listing/the-list/list-entry/1002751","SY 62335 88955",362335,88955,NA,50.6990097640636,-2.53467732104133
1002755,"heritage-at-risk",NA,7500440,"2022-12-21","Round barrows on Four Barrow Hill","POINT(-2.495093 50.690399)",NA,"geography","https://historicengland.org.uk/advice/heritage-at-risk/search-register/list-entry/36554",NA,NA,NA,"Round barrows on Four Barrow Hill","https://historicengland.org.uk/listing/the-list/list-entry/1002755","SY 65176 88084, SY 65148 88033, SY 65132 87972, SY 65094 87921, SY 65063 87873",365176,88084,NA,50.6913550455415,-2.49436975481894
1002756,"heritage-at-risk",NA,7500441,"2024-09-26","Group of round barrows near Eweleaze Barn","POINT(-2.498401 50.684483)",NA,"geography","https://historicengland.org.uk/advice/heritage-at-risk/search-register/list-entry/44205",NA,NA,NA,"Group of round barrows near Eweleaze Barn","https://historicengland.org.uk/listing/the-list/list-entry/1002756","SY 64642 87800, SY 64990 87137, SY 64938 87209, SY 64861 87277, SY 64830 87394, SY 64794 87569, SY 64778 87704",364990,87137,NA,50.6828280560855,-2.49691286087405
1002757,"heritage-at-risk",NA,7502141,"2024-09-26","Round barrows on Grove Hill","POINT(-2.511456 50.695008)",NA,"geography","https://historicengland.org.uk/advice/heritage-at-risk/search-register/list-entry/35319",NA,NA,NA,"Round barrows on Grove Hill","https://historicengland.org.uk/listing/the-list/list-entry/1002757","SY 63868 88487, SY 63905 88496, SY 64117 88514",364117,88514,NA,50.6951571831535,-2.50940338590425
1002758,"heritage-at-risk",NA,7500778,"2022-12-21","Two round barrows on Ridgeway","POINT(-2.502825 50.678680)",NA,"geography","https://historicengland.org.uk/advice/heritage-at-risk/search-register/list-entry/33527",NA,NA,NA,"Two round barrows on Ridgeway","https://historicengland.org.uk/listing/the-list/list-entry/1002758","SY 64588 86673, SY 64547 86687",364588,86673,NA,50.678631181807,-2.50255815713876
1002759,"heritage-at-risk",NA,7502142,"2022-12-21","Round barrow north of Ridgeway","POINT(-2.496774 50.679164)",NA,"geography","https://historicengland.org.uk/advice/heritage-at-risk/search-register/list-entry/41659",NA,NA,NA,"Round barrow N of Ridgeway","https://historicengland.org.uk/listing/the-list/list-entry/1002759","SY 64879 86754, SY 65045 86716, SY 65170 86700",364879,86754,NA,50.6793772588722,-2.49844744492586
1002760,"heritage-at-risk",NA,7500779,"2021-12-01","Group of round barrows on Ridgeway","POINT(-2.488817 50.677998)",NA,"geography","https://historicengland.org.uk/advice/heritage-at-risk/search-register/list-entry/36555",NA,NA,NA,"Group of round barrows on Ridgeway","https://historicengland.org.uk/listing/the-list/list-entry/1002760","SY 65576 86590, SY 65671 86607, SY 65856 86609, SY 65426 86606, SY 65300 86587, SY 65740 86616, SY 65361 86576, SY 65332 86581",365576,86590,NA,50.6779442918881,-2.48856753371913
1002765,"heritage-at-risk",NA,7500780,"2022-12-21","Drove Hill round barrows","POINT(-2.280279 50.673436)",NA,"geography","https://historicengland.org.uk/advice/heritage-at-risk/search-register/list-entry/36559",NA,NA,NA,"Two bowl barrows on Drove Hill","https://historicengland.org.uk/listing/the-list/list-entry/1002765","SY 80223 86027, SY 80358 85999",380223,86027,NA,50.6735664518933,-2.28124115756087
1002767,"heritage-at-risk",NA,7500781,"2024-09-26","Causewayed camp on Hambledon Hill","POINT(-2.216014 50.909394)",NA,"geography","https://historicengland.org.uk/advice/heritage-at-risk/search-register/list-entry/36560",NA,NA,NA,"Causewayed camp on Hambledon Hill","https://historicengland.org.uk/listing/the-list/list-entry/1002767","ST 84913 12223",384913,112223,NA,50.9092752884873,-2.21595420703692
1002770,"heritage-at-risk",NA,7500442,"2022-12-21","Group of barrows east of Northdown Barn","POINT(-2.410089 50.660459)",NA,"geography","https://historicengland.org.uk/advice/heritage-at-risk/search-register/list-entry/41661",NA,NA,NA,"Group of barrows E of Northdown Barn","https://historicengland.org.uk/listing/the-list/list-entry/1002770","SY 71220 84557, SY 71208 84539, SY 71334 84502, SY 71107 84549, SY 71163 84516, SY 71162 84552, SY 71249 84527, SY 70797 84753, SY 70847 84787, SY 70959 84748, SY 71123 84678",371162,84552,NA,50.6599222681064,-2.40935145219182
1002774,"heritage-at-risk",NA,7500782,"2024-09-26","Four barrows on Moigns Down","POINT(-2.342228 50.653998)",NA,"geography","https://historicengland.org.uk/advice/heritage-at-risk/search-register/list-entry/36556",NA,NA,NA,"Four barrows on Moigns Down","https://historicengland.org.uk/listing/the-list/list-entry/1002774","SY 75601 83625, SY 76072 83834, SY 75485 83993, SY 76537 84008",375485,83993,NA,50.6550943036663,-2.34815539246888
1002779,"heritage-at-risk",NA,7505049,"2024-09-26","Earthwork on Shipton Hill","POINT(-2.698810 50.726833)",NA,"geography","https://historicengland.org.uk/advice/heritage-at-risk/search-register/list-entry/34875",NA,NA,NA,"Earthwork on Shipton Hill","https://historicengland.org.uk/listing/the-list/list-entry/1002779","SY 50763 92141",350763,92141,NA,50.7267913640658,-2.69894446113296
1002782,"heritage-at-risk",NA,7502143,"2024-09-26","Barrows in and near St Giles Park","POINT(-1.938179 50.904876)",NA,"geography","https://historicengland.org.uk/advice/heritage-at-risk/search-register/list-entry/35321",NA,NA,NA,"Barrows in and near St Giles Park","https://historicengland.org.uk/listing/the-list/list-entry/1002782","SU 04635 11596, SU 04097 11540, SU 04433 11851, SU 04527 12064, SU 04617 11555",404433,111851,NA,50.9061141730713,-1.93832432991116
1002783,"heritage-at-risk",NA,7500783,"2024-09-26","Barrow on Parsonage Hill","POINT(-2.027940 50.901853)",NA,"geography","https://historicengland.org.uk/advice/heritage-at-risk/search-register/list-entry/41663",NA,NA,NA,"Barrow on Parsonage Hill","https://historicengland.org.uk/listing/the-list/list-entry/1002783","ST 98128 11374",398128,111374,NA,50.901837534904,-2.02799199848878
1002784,"heritage-at-risk",NA,7502144,"2024-09-26","Long mound 1500 yards (1370 metres) east of Higher Farm","POINT(-2.011527 50.917347)",NA,"geography","https://historicengland.org.uk/advice/heritage-at-risk/search-register/list-entry/44208",NA,NA,NA,"Long mound 1500yds (1370m) E of Higher Farm","https://historicengland.org.uk/listing/the-list/list-entry/1002784","ST 99286 13099",399286,113099,NA,50.91735220933,-2.01152825080944
1002786,"heritage-at-risk",NA,7500443,"2024-09-26","Two barrows near Ackling Dyke","POINT(-1.992872 50.928167)",NA,"geography","https://historicengland.org.uk/advice/heritage-at-risk/search-register/list-entry/34876",NA,NA,NA,"Two barrows near Ackling Dyke","https://historicengland.org.uk/listing/the-list/list-entry/1002786","SU 00622 14301, SU 00582 14303",400582,114303,NA,50.928179413392,-1.99309044598424
1002788,"heritage-at-risk",NA,7500444,"2022-12-21","Barrows in and near The Drive Plantation","POINT(-1.981321 50.935134)",NA,"geography","https://historicengland.org.uk/advice/heritage-at-risk/search-register/list-entry/40092",NA,NA,NA,"Barrows in and near The Drive Plantation","https://historicengland.org.uk/listing/the-list/list-entry/1002788","SU 01178 15173, SU 01550 15149, SU 01287 15278, SU 01245 15229, SU 01641 15223, SU 01447 14905, SU 01462 14759, SU 01289 15212",401447,114905,NA,50.9335914554033,-1.98078032273279
1002795,"heritage-at-risk",NA,7500606,"2024-09-26","Barrows near Water Lake","POINT(-1.956719 50.941545)",NA,"geography","https://historicengland.org.uk/advice/heritage-at-risk/search-register/list-entry/35322",NA,NA,NA,"Four bowl barrows 865m north east of Squirrel's Corner","https://historicengland.org.uk/listing/the-list/list-entry/1002795","SU 03147 15877, SU 03138 15811, SU 03127 15719, SU 03136 15752",403138,115811,NA,50.9417321225381,-1.95670909439465
1002796,"heritage-at-risk",NA,7500607,"2022-12-21","Celtic fields on Pentridge Down","POINT(-1.947015 50.955934)",NA,"geography","https://historicengland.org.uk/advice/heritage-at-risk/search-register/list-entry/39431",NA,NA,NA,"Celtic fields on Pentridge Down","https://historicengland.org.uk/listing/the-list/list-entry/1002796","SU 03825 17439",403825,117439,NA,50.9563675951022,-1.94691447320126
1002805,"heritage-at-risk",NA,7500472,"2024-09-26","Two barrows west of Little Piddle Down","POINT(-2.431713 50.759225)",NA,"geography","https://historicengland.org.uk/advice/heritage-at-risk/search-register/list-entry/44209",NA,NA,NA,"Two barrows W of Little Piddle Down","https://historicengland.org.uk/listing/the-list/list-entry/1002805","SY 69540 95671, SY 69806 95504",369540,95671,NA,50.7598261900711,-2.433219312864
1002809,"heritage-at-risk",NA,7502145,"2021-12-01","Barrow near east boundary of parish","POINT(-2.642777 50.753209)",NA,"geography","https://historicengland.org.uk/advice/heritage-at-risk/search-register/list-entry/42458",NA,NA,NA,"Bowl Barrow, 710m south-west of Woolcombe Farm","https://historicengland.org.uk/listing/the-list/list-entry/1002809","SY5475395044",354753,95044,NA,50.7532206137728,-2.64277630818533
1002810,"heritage-at-risk",NA,7500784,"2024-09-26","Group of barrows south of Goldsmith's Plantation","POINT(-2.497930 50.710153)",NA,"geography","https://historicengland.org.uk/advice/heritage-at-risk/search-register/list-entry/34426",NA,NA,NA,"Group of barrows S of Goldsmith's Plantation","https://historicengland.org.uk/listing/the-list/list-entry/1002810","SY 64677 90323, SY 64750 90309, SY 64793 90300, SY 64891 90243, SY 65119 90359, SY 65177 90180, SY 65081 89995, SY 65055 89982, SY 64781 89933",364793,90300,NA,50.7112589773326,-2.50000366974444
1002811,"heritage-at-risk",NA,7500608,"2022-12-21","Two barrows at Rew","POINT(-2.515831 50.711962)",NA,"geography","https://historicengland.org.uk/advice/heritage-at-risk/search-register/list-entry/34427",NA,NA,NA,"Two barrows at Rew","https://historicengland.org.uk/listing/the-list/list-entry/1002811","SY 63663 90409, SY 63688 90364",363663,90409,NA,50.7121693727353,-2.51601803601716
1002812,"heritage-at-risk",NA,7500609,"2024-09-26","Group of barrows in Seven Barrow Plantation","POINT(-2.500852 50.730423)",NA,"geography","https://historicengland.org.uk/advice/heritage-at-risk/search-register/list-entry/45002",NA,NA,NA,"Group of barrows in Seven Barrow Plantation","https://historicengland.org.uk/listing/the-list/list-entry/1002812","SY 64610 92179, SY 64764 92558, SY 64713 92343, SY 64724 92393, SY 64749 92418, SY 64744 92457, SY 64763 92479, SY 64798 92472, SY 64803 92508, SY 64742 92474",364798,92472,NA,50.7307906143392,-2.50014082174409
1002814,"heritage-at-risk",NA,7500610,"2024-09-26","Three barrows south of Hart Hill Plantation","POINT(-2.506798 50.711541)",NA,"geography","https://historicengland.org.uk/advice/heritage-at-risk/search-register/list-entry/34878",NA,NA,NA,"Three barrows S of Hart Hill Plantation","https://historicengland.org.uk/listing/the-list/list-entry/1002814","SY 64264 90345, SY 64385 90316, SY 64312 90338",364312,90338,NA,50.7115712570309,-2.50681951585537
1002816,"heritage-at-risk",NA,7502146,"2024-09-26","Round barrows near Thickthorn Farm","POINT(-2.050293 50.917375)",NA,"geography","https://historicengland.org.uk/advice/heritage-at-risk/search-register/list-entry/35213",NA,NA,NA,"Round barrows near Thickthorn Farm","https://historicengland.org.uk/listing/the-list/list-entry/1002816","ST 96448 13165, ST 96613 13116, ST 96625 13040",396625,113040,NA,50.9168117007944,-2.04938176325476
1002817,"heritage-at-risk",NA,7500785,"2024-09-26","Barrows in Salisbury Plantation","POINT(-1.962913 50.945106)",NA,"geography","https://historicengland.org.uk/advice/heritage-at-risk/search-register/list-entry/45681",NA,NA,NA,"Barrows in Salisbury Plantation","https://historicengland.org.uk/listing/the-list/list-entry/1002817","SU 02637 16210, SU 02655 16244, SU 02503 16207, SU 02734 16255, SU 02764 16177, SU 02797 16110, SU 02849 16111",402637,116210,NA,50.9453224685573,-1.96383703784467
1002820,"heritage-at-risk",NA,7500473,"2021-12-01","Earthworks on Loscombe Hill","POINT(-2.540420 50.800074)",NA,"geography","https://historicengland.org.uk/advice/heritage-at-risk/search-register/list-entry/42123",NA,NA,NA,"Earthworks on Loscombe Hill","https://historicengland.org.uk/listing/the-list/list-entry/1002820","ST 61607 00369, ST 61942 00309, ST 61914 00163, ST 62145 00192, ST 61735 00207",362145,100192,NA,50.8000430582021,-2.53852609827818
1002824,"heritage-at-risk",NA,7500786,"2024-09-26","Round barrow 230 yards (210 metres) east of White Hill Plantation","POINT(-2.585857 50.676124)",NA,"geography","https://historicengland.org.uk/advice/heritage-at-risk/search-register/list-entry/34429",NA,NA,NA,"Round barrow 230yds (210m) E of White Hill Plantation","https://historicengland.org.uk/listing/the-list/list-entry/1002824","SY 58700 86439",358700,86439,NA,50.6761377371889,-2.58586202331052
1002825,"heritage-at-risk",NA,7502147,"2022-12-21","Four bowl barrows 725 metres ESE of Wears Farm","POINT(-2.611743 50.674554)",NA,"geography","https://historicengland.org.uk/advice/heritage-at-risk/search-register/list-entry/42124",NA,NA,NA,"Four bowl barrows 725m ESE of Wears Farm","https://historicengland.org.uk/listing/the-list/list-entry/1002825","SY 56946 86282, SY 56605 86237, SY 56983 86302, SY 56908 86288",356983,86302,NA,50.6747810825831,-2.61014448497934
1002828,"heritage-at-risk",NA,7500611,"2024-09-26","Two round barrows north of Came Farm","POINT(-2.432984 50.686320)",NA,"geography","https://historicengland.org.uk/advice/heritage-at-risk/search-register/list-entry/35215",NA,NA,NA,"Two round barrows N of Came Farm","https://historicengland.org.uk/listing/the-list/list-entry/1002828","SY 69529 87500, SY 69491 87496",369491,87496,NA,50.6863106668308,-2.43323519156147
1002835,"heritage-at-risk",NA,7500787,"2022-12-21","Holditch Court Tower","POINT(-2.931266 50.815164)",NA,"geography","https://historicengland.org.uk/advice/heritage-at-risk/search-register/list-entry/42459",NA,NA,NA,"Holditch Court Tower","https://historicengland.org.uk/listing/the-list/list-entry/1002835","ST 34490 02150",334490,102150,NA,50.8151760556872,-2.93125436946525
1002836,"heritage-at-risk",NA,7500474,"2024-09-26","Marshwood Castle","POINT(-2.845794 50.775658)",NA,"geography","https://historicengland.org.uk/advice/heritage-at-risk/search-register/list-entry/49115",NA,NA,NA,"Marshwood Castle","https://historicengland.org.uk/listing/the-list/list-entry/1002836","SY 40455 97688",340455,97688,NA,50.7757008868576,-2.84586932902267
1002845,"heritage-at-risk",NA,7500612,"2024-09-26","Earthwork east of Stake Farm","POINT(-2.634790 50.847107)",NA,"geography","https://historicengland.org.uk/advice/heritage-at-risk/search-register/list-entry/42460",NA,NA,NA,"Earthwork E of Stake Farm","https://historicengland.org.uk/listing/the-list/list-entry/1002845","ST 55398 05474",355398,105474,NA,50.847057173094,-2.63490369261259
1002849,"heritage-at-risk",NA,7500788,"2024-09-26","Round barrow on Dickley Hill","POINT(-2.485557 50.800848)",NA,"geography","https://historicengland.org.uk/advice/heritage-at-risk/search-register/list-entry/45005",NA,NA,NA,"Round barrow on Dickley Hill","https://historicengland.org.uk/listing/the-list/list-entry/1002849","ST 65878 00257",365878,100257,NA,50.8008601532597,-2.48556337706149
1002851,"heritage-at-risk",NA,7500789,"2024-09-26","Round barrow east of Forston Farm","POINT(-2.462711 50.758726)",NA,"geography","https://historicengland.org.uk/advice/heritage-at-risk/search-register/list-entry/42235",NA,NA,NA,"Round barrow E of Forston Farm","https://historicengland.org.uk/listing/the-list/list-entry/1002851","SY 67459 95562",367459,95562,NA,50.7587326424829,-2.46271249713674
1002852,"heritage-at-risk",NA,7502148,"2024-09-26","Settlement on Dickley Hill","POINT(-2.487658 50.801495)",NA,"geography","https://historicengland.org.uk/advice/heritage-at-risk/search-register/list-entry/45685",NA,NA,NA,"Settlement on Dickley Hill","https://historicengland.org.uk/listing/the-list/list-entry/1002852","ST 65744 00322",365744,100322,NA,50.801436714016,-2.4874708679847
1002860,"heritage-at-risk",NA,7500790,"2024-09-26","Enclosure south of Pimperne Down","POINT(-2.156194 50.886986)",NA,"geography","https://historicengland.org.uk/advice/heritage-at-risk/search-register/list-entry/44214",NA,NA,NA,"Enclosure S of Pimperne Down","https://historicengland.org.uk/listing/the-list/list-entry/1002860","ST 89088 09744",389088,109744,NA,50.8870780884185,-2.15649836588325
1002862,"heritage-at-risk",NA,7500613,"2022-12-21","Barrow east of Burnt House Bottom","POINT(-2.418464 50.821303)",NA,"geography","https://historicengland.org.uk/advice/heritage-at-risk/search-register/list-entry/45686",NA,NA,NA,"Bowl barrow 900m north west of Lower Farm","https://historicengland.org.uk/listing/the-list/list-entry/1002862","ST 70619 02502",370619,102502,NA,50.8213085914518,-2.41847040776562
1002865,"heritage-at-risk",NA,7500614,"2024-09-26","Two round barrows on North Hill","POINT(-2.525637 50.708368)",NA,"geography","https://historicengland.org.uk/advice/heritage-at-risk/search-register/list-entry/42128",NA,NA,NA,"Two round barrows on North Hill","https://historicengland.org.uk/listing/the-list/list-entry/1002865","SY 62943 90006, SY 63021 89977",362943,90006,NA,50.7084998724953,-2.52617461089294
1002870,"heritage-at-risk",NA,7500475,"2024-09-26","Round barrow on Pound Hill","POINT(-2.533168 50.715992)",NA,"geography","https://historicengland.org.uk/advice/heritage-at-risk/search-register/list-entry/42237",NA,NA,NA,"Round barrow on Pound Hill","https://historicengland.org.uk/listing/the-list/list-entry/1002870","SY 62455 90844",362455,90844,NA,50.7160040040073,-2.53317099061285
1002871,"heritage-at-risk",NA,7500476,"2022-12-21","Round barrow on Stratton Down","POINT(-2.490462 50.760276)",NA,"geography","https://historicengland.org.uk/advice/heritage-at-risk/search-register/list-entry/36569",NA,NA,NA,"Round barrow on Stratton Down","https://historicengland.org.uk/listing/the-list/list-entry/1002871","SY 65503 95747",365503,95747,NA,50.7602828401661,-2.49045983604765
1002874,"heritage-at-risk",NA,7500791,"2024-09-26","Round barrow west of Druce Higher Barn","POINT(-2.366886 50.776021)",NA,"geography","https://historicengland.org.uk/advice/heritage-at-risk/search-register/list-entry/42801",NA,NA,NA,"Round barrow W of Druce Higher Barn","https://historicengland.org.uk/listing/the-list/list-entry/1002874","SY 74227 97448",374227,97448,NA,50.7760337487925,-2.36689494469734
1002875,"heritage-at-risk",NA,7502149,"2024-09-26","Two round barrows south west of Well House Cottage","POINT(-2.368023 50.768728)",NA,"geography","https://historicengland.org.uk/advice/heritage-at-risk/search-register/list-entry/41108",NA,NA,NA,"Two round barrows SW of Well House Cottage","https://historicengland.org.uk/listing/the-list/list-entry/1002875","SY 74170 96762, SY 74114 96504",374170,96762,NA,50.7698624126716,-2.36765494037135
1002878,"heritage-at-risk",NA,7500615,"2024-09-26","Round barrow on Cheselbourne West Down","POINT(-2.369868 50.787387)",NA,"geography","https://historicengland.org.uk/advice/heritage-at-risk/search-register/list-entry/44215",NA,NA,NA,"Round barrow on Cheselbourne West Down","https://historicengland.org.uk/listing/the-list/list-entry/1002878","SY 74023 98713",374023,98713,NA,50.7873999765821,-2.36987792832759
1002887,"heritage-at-risk",NA,7500477,"2024-09-26","Sites discovered by air photography at Markshall","POINT(1.294346 52.597616)",NA,"geography","https://historicengland.org.uk/advice/heritage-at-risk/search-register/list-entry/29820",NA,NA,NA,"Sites discovered by air photography at Markshall","https://historicengland.org.uk/listing/the-list/list-entry/1002887","TG2326605331, TG2342604572, TG2345004715, TG2344104621, TG2317205283, TG2239204329, TG2244704229, TG2255304192",623172,305283,NA,52.5994766345969,1.29398069673766
1002889,"heritage-at-risk",NA,7500478,"2021-05-27","Deserted village, Godwick","POINT(0.820419 52.762273)",NA,"geography","https://historicengland.org.uk/advice/heritage-at-risk/search-register/list-entry/2289447",NA,NA,NA,"Deserted village, Godwick","https://historicengland.org.uk/listing/the-list/list-entry/1002889","TF 90389 22040",590389,322040,NA,52.7624003851051,0.820270042276068
1002907,"heritage-at-risk",NA,7502150,"2024-09-26","Simonside camp","POINT(-1.967771 55.557807)",NA,"geography","https://historicengland.org.uk/advice/heritage-at-risk/search-register/list-entry/30315",NA,NA,NA,"Simonside camp","https://historicengland.org.uk/listing/the-list/list-entry/1002907","NU 02125 29352",402125,629352,NA,55.5578524796658,-1.96787075194392
1002916,"heritage-at-risk",NA,7502151,"2024-09-26","Settlement on south east slope of Ewe Hill","POINT(-1.992633 55.443707)",NA,"geography","https://historicengland.org.uk/advice/heritage-at-risk/search-register/list-entry/27640",NA,NA,NA,"Settlement on SE slope of Ewe Hill","https://historicengland.org.uk/listing/the-list/list-entry/1002916","NU 00564 16648",400564,616648,NA,55.4437057415303,-1.99263773902381
1002925,"heritage-at-risk",NA,7502152,"2024-09-26","Settlement site at Northfield Farm","POINT(-1.195610 51.649101)",NA,"geography","https://historicengland.org.uk/advice/heritage-at-risk/search-register/list-entry/32572",NA,NA,NA,"Settlement site at Northfield Farm","https://historicengland.org.uk/listing/the-list/list-entry/1002925","SU 55883 94444",455883,194444,NA,51.6460249626769,-1.19374851955372
1002933,"heritage-at-risk",NA,7500792,"2024-09-26","Offa's Dyke: section 550yds (500m) long, on Bakers Hill","POINT(-3.111631 52.877045)",NA,"geography","https://historicengland.org.uk/advice/heritage-at-risk/search-register/list-entry/36316",NA,NA,NA,"Offa's Dyke: section 550yds (500m) long, on Bakers Hill","https://historicengland.org.uk/listing/the-list/list-entry/1002933","SJ 25286 31648",325286,331648,NA,52.8770898398111,-3.11158038070267
1002937,"heritage-at-risk",NA,7500479,"2022-12-21","Medieval chapel of St Thomas Becket 45 metres east of the church, Priory Road","POINT(-4.716103 50.471304)",NA,"geography","https://historicengland.org.uk/advice/heritage-at-risk/search-register/list-entry/410494",NA,NA,NA,"Medieval chapel of St Thomas Becket 45m east of the church, Priory Road in Bodmin","https://historicengland.org.uk/listing/the-list/list-entry/1002937","SX0736267025",207362,67025,NA,50.4713202914848,-4.7160566331355
1002939,"heritage-at-risk",NA,7500480,"2024-09-26","Huntington Castle","POINT(-3.099726 52.177961)",NA,"geography","https://historicengland.org.uk/advice/heritage-at-risk/search-register/list-entry/42625",NA,NA,NA,"Huntington Castle","https://historicengland.org.uk/listing/the-list/list-entry/1002939","SO 24890 53867",324890,253867,NA,52.1779234026484,-3.09985345970093
1002945,"heritage-at-risk",NA,7501534,"2024-09-26","Settlement south east of Lower Delgate Farm","POINT(-0.105462 52.732470)",NA,"geography","https://historicengland.org.uk/advice/heritage-at-risk/search-register/list-entry/35481",NA,NA,NA,"Settlement SE of Lower Delgate Farm","https://historicengland.org.uk/listing/the-list/list-entry/1002945","TF 28015 16659",528015,316659,NA,52.7324242281339,-0.10557299073367
1002946,"heritage-at-risk",NA,7501535,"2024-09-26","Two camps and cup and ring marked rocks on Dod Law","POINT(-1.993262 55.579036)",NA,"geography","https://historicengland.org.uk/advice/heritage-at-risk/search-register/list-entry/31645",NA,NA,NA,"Two camps and cup and ring marked rocks on Dod Law","https://historicengland.org.uk/listing/the-list/list-entry/1002946","NU 00409 31708, NU 00637 31711",400637,631711,NA,55.5790526939142,-1.99145544423197
1002953,"heritage-at-risk",NA,7500481,"2024-09-26","Medieval fishpond reservoir north east of Haughmond Abbey and south west of the hamlet of Haughton","POINT(-2.665321 52.741090)",NA,"geography","https://historicengland.org.uk/advice/heritage-at-risk/search-register/list-entry/34646",NA,NA,NA,"Medieval fishpond reservoir NE of Haughmond Abbey and SW of the hamlet of Haughton","https://historicengland.org.uk/listing/the-list/list-entry/1002953","SJ 55171 16124",355171,316124,NA,52.7408737012439,-2.6654435196776
1002955,"heritage-at-risk",NA,7500482,"2024-09-26","Cow Castle","POINT(-3.724026 51.122721)",NA,"geography","https://historicengland.org.uk/advice/heritage-at-risk/search-register/list-entry/44857",NA,NA,NA,"Cow Castle","https://historicengland.org.uk/listing/the-list/list-entry/1002955","SS 79437 37350",279437,137350,NA,51.1227088620154,-3.7240967462903
1002957,"heritage-at-risk",NA,7502521,"2024-09-26","Poundisford Park Pale","POINT(-3.114400 50.976586)",NA,"geography","https://historicengland.org.uk/advice/heritage-at-risk/search-register/list-entry/35180",NA,NA,NA,"Poundisford Park pale","https://historicengland.org.uk/listing/the-list/list-entry/1002957","ST 21966 21169, ST 22203 20987, ST 21531 21117, ST 22394 20599, ST 21147 19897, ST 22444 19940, ST 21613 19608, ST 22321 19563",321613,119608,NA,50.9705333545921,-3.11775578681297
1002960,"heritage-at-risk",NA,7500793,"2021-12-01","Remains of Chantry at Kilve, Sea Lane","POINT(-3.222775 51.189036)",NA,"geography","https://historicengland.org.uk/advice/heritage-at-risk/search-register/list-entry/48507",NA,NA,NA,"Remains of 14th century chantry at Kilve","https://historicengland.org.uk/listing/the-list/list-entry/1002960","ST 14644 44021",314644,144021,NA,51.1890160155368,-3.22275836062127
1002964,"heritage-at-risk",NA,7501536,"2024-09-26","Causewayed enclosure","POINT(-1.773354 52.726893)",NA,"geography","https://historicengland.org.uk/advice/heritage-at-risk/search-register/list-entry/36309",NA,NA,NA,"Causewayed enclosure","https://historicengland.org.uk/listing/the-list/list-entry/1002964","SK 15393 14496, SK 15413 14345",415413,314345,NA,52.7265330678223,-1.77321765736037
1002969,"heritage-at-risk",NA,7504718,"2024-09-26","Martello tower at Rose Cottage","POINT(1.431246 52.006259)",NA,"geography","https://historicengland.org.uk/advice/heritage-at-risk/search-register/list-entry/26314",NA,NA,NA,"Martello tower at Rose Cottage","https://historicengland.org.uk/listing/the-list/list-entry/1002969","TM 35592 39760",635592,239760,NA,52.0062431863756,1.43121849521822
1002974,"heritage-at-risk",NA,7504719,"2024-09-26","East Low Hill tumulus","POINT(0.779652 52.221262)",NA,"geography","https://historicengland.org.uk/advice/heritage-at-risk/search-register/list-entry/27208",NA,NA,NA,"East Low Hill tumulus","https://historicengland.org.uk/listing/the-list/list-entry/1002974","TL 89964 61756",589964,261756,NA,52.2212463482095,0.779616294145534
1002979,"heritage-at-risk",NA,7501537,"2021-05-27","Coventry City Walls","POINT(-1.505225 52.408371)",NA,"geography","https://historicengland.org.uk/advice/heritage-at-risk/search-register/list-entry/47951",NA,NA,NA,"Coventry city walls","https://historicengland.org.uk/listing/the-list/list-entry/1002979","SP 34156 78914, SP 33009 79142, SP 32994 79106, SP 33548 79431, SP 33564 79342, SP 34223 78710, SP 34182 78692, SP 33174 79304, SP 33028 79070, SP 34014 78995, SP 33214 79418, SP 33525 79459, SP 33912 78553",434014,278995,NA,52.4079090102604,-1.50141557891752
1002985,"heritage-at-risk",NA,7504720,"2024-09-26","Stank Hall quasi-manorial site, Dewsbury Road","POINT(-1.568654 53.757406)",NA,"geography","https://historicengland.org.uk/advice/heritage-at-risk/search-register/list-entry/49729",NA,NA,NA,"Stank Hall quasi-manorial site","https://historicengland.org.uk/listing/the-list/list-entry/1002985","SE 28530 29113",428530,429033,NA,53.7568818460259,-1.56876519077431
1002990,"heritage-at-risk",NA,7500483,"2024-09-26","Double ditched enclosure east of Thornton Farm","POINT(-1.595337 52.150721)",NA,"geography","https://historicengland.org.uk/advice/heritage-at-risk/search-register/list-entry/40408",NA,NA,NA,"Double ditched enclosure E of Thornton Farm","https://historicengland.org.uk/listing/the-list/list-entry/1002990","SP 27784 50354",427784,250354,NA,52.1507758028081,-1.59534511649244
1003010,"heritage-at-risk",NA,7504721,"2021-05-27","Roman road in Spye Park","POINT(-2.059394 51.407010)",NA,"geography","https://historicengland.org.uk/advice/heritage-at-risk/search-register/list-entry/33713",NA,NA,NA,"Roman road in Spye Park","https://historicengland.org.uk/listing/the-list/list-entry/1003010","ST 95987 67548",395987,167548,NA,51.4069424251155,-2.05908313388358
1003013,"heritage-at-risk",NA,7501538,"2024-09-26","Offa's Dyke: section 2/3 mile (1170 metres) long, north from southern boundary of Rownal Covert","POINT(-3.133243 52.577394)",NA,"geography","https://historicengland.org.uk/advice/heritage-at-risk/search-register/list-entry/43232",NA,NA,NA,"Offa's Dyke: section 2/3 mile (1170m) long, N from southern boundary of Rownal Covert","https://historicengland.org.uk/listing/the-list/list-entry/1003013","SO 23234 98771, SO 23322 98222",323322,298222,NA,52.5763865933778,-3.13294024156255
1003029,"heritage-at-risk",NA,7505051,"2024-09-26","Roman villa north of Dunnock's Lane","POINT(-2.647187 50.921423)",NA,"geography","https://historicengland.org.uk/advice/heritage-at-risk/search-register/list-entry/40960",NA,NA,NA,"Roman villa N of Dunnock's Lane","https://historicengland.org.uk/listing/the-list/list-entry/1003029","ST 54604 13755",354604,113755,NA,50.9214566984164,-2.64721233254924
1003033,"heritage-at-risk",NA,7504722,"2024-09-26","Knowle Hill round barrow","POINT(-1.950385 51.010436)",NA,"geography","https://historicengland.org.uk/advice/heritage-at-risk/search-register/list-entry/33261",NA,NA,NA,"Knowle Hill round barrow","https://historicengland.org.uk/listing/the-list/list-entry/1003033","SU 03577 23452",403577,123452,NA,51.0104395938932,-1.95038806568096
1003034,"heritage-at-risk",NA,7502522,"2024-09-26","Group of round barrows on Rough Hill","POINT(-1.805255 51.455322)",NA,"geography","https://historicengland.org.uk/advice/heritage-at-risk/search-register/list-entry/45178",NA,NA,NA,"Group of round barrows on Rough Hill","https://historicengland.org.uk/listing/the-list/list-entry/1003034","SU 13506 72967, SU 13661 72939, SU 13683 72936, SU 13640 72941, SU 13707 72931",413506,172967,NA,51.4555243854784,-1.807009943
