ListEntry,Name,hyperlink,NGR,Easting,Northing,Grade,lat,lon
1001718,Mound S of Woodbrook,https://historicengland.org.uk/listing/the-list/list-entry/1001718,SO 30447 54456,330447,254456,NA,52.18394763264222,-3.01872132411239
1001719,Castle Twts,https://historicengland.org.uk/listing/the-list/list-entry/1001719,SO 27703 55474,327703,255474,NA,52.19274489859836,-3.0590661101697605
1001720,Lyonshall Castle,https://historicengland.org.uk/listing/the-list/list-entry/1001720,SO 33165 56319,333165,256319,NA,52.20103089515068,-2.979341482005801
1001721,Mound 1200yds (1100m) NNE of the Church,https://historicengland.org.uk/listing/the-list/list-entry/1001721,SO 37237 68101,337237,268101,NA,52.30742046128547,-2.9219629937513574
1001722,Limebrook Priory,https://historicengland.org.uk/listing/the-list/list-entry/1001722,SO 37411 66071,337411,266071,NA,52.289192529893576,-2.9190333553832035
1001723,"Two bowl barrows, one 220m east of Lower Longbeak and the other 320m east of Higher Longbeak",https://historicengland.org.uk/listing/the-list/list-entry/1001723,"SS 19954 03896, SS 19871 03235",219871,103235,NA,50.800605873062665,-4.557574413433812
1001724,Megalithic tomb 220yds (200m) SW of Trevarthen,https://historicengland.org.uk/listing/the-list/list-entry/1001724,SW 40442 29570,140442,29570,NA,50.10935443920342,-5.631627386327408
1001725,Hut circle 280yds (250m) SW of Trevarthen,https://historicengland.org.uk/listing/the-list/list-entry/1001725,SW 40423 29519,140423,29519,NA,50.108888381330146,-5.6318578953360765
1001726,Cast iron footbridge at Perran Mill,https://historicengland.org.uk/listing/the-list/list-entry/1001726,SW7755338420,177553,38420,NA,50.20389721875372,-5.118630111971502
1001727,Round cairn 185m NNW of Old Hilltop Farm,https://historicengland.org.uk/listing/the-list/list-entry/1001727,SW 69553 36438,169553,36438,NA,50.18303899993931,-5.229351264109386
1001728,Kerbed cairn called Hangman's Barrow,https://historicengland.org.uk/listing/the-list/list-entry/1001728,SW 67336 36666,167336,36666,NA,50.184219276948085,-5.260492509687276
1001729,Round cairn and kerbed cairn 300m north east of Blackrock Farm,https://historicengland.org.uk/listing/the-list/list-entry/1001729,SW6643335045,166433,35045,NA,50.16930909632036,-5.272124459969494
1001730,Two bowl barrows 250m west of Silverwell Farm,https://historicengland.org.uk/listing/the-list/list-entry/1001730,"SW 73071 33232, SW 73025 33193",173071,33232,NA,50.155608879631934,-5.178241661895994
1001731,"Offa's Dyke: Rushock Hill section, extending 1630yds (1490m) E to Kennel Wood",https://historicengland.org.uk/listing/the-list/list-entry/1001731,SO 29562 59529,329562,259529,NA,52.22943591269873,-3.0327203863951913
1001732,Offa's Dyke: the section extending 165yds (150m) N from Berry Wood,https://historicengland.org.uk/listing/the-list/list-entry/1001732,SO 32395 58700,332395,258700,NA,52.222339703021376,-2.9910825713605207
1001733,Offa's Dyke: the section 630yds (580m) long W of Lyonshall,https://historicengland.org.uk/listing/the-list/list-entry/1001733,SO 32790 55995,332790,255995,NA,52.19807276883085,-2.984763175965314
1001734,"Offa's Dyke: the section E of Garden Wood, extending SE 85yds (80m)",https://historicengland.org.uk/listing/the-list/list-entry/1001734,SO 33139 55387,333139,255387,NA,52.192649918360324,-2.979537605731346
1001735,Offa's Dyke: section NW of Holme Marsh extending 615yds (560m) to the railway,https://historicengland.org.uk/listing/the-list/list-entry/1001735,SO 33493 55016,333493,255016,NA,52.18935784662992,-2.9742867687149426
1001736,"Offa's Dyke: Upperton Farm, two sections extending 195yds (180m) and 370yds (340m) S from Yazor",https://historicengland.org.uk/listing/the-list/list-entry/1001736,"SO 39458 46771, SO 39469 46446",339469,246446,NA,52.11300838961485,-2.8853512912686385
1001737,Offa's Dyke: the section extending 230yds (210m) N and S of the Old Barn near Kenmoor Coppice (SE of Bowmore Wood),https://historicengland.org.uk/listing/the-list/list-entry/1001737,SO 39505 45557,339505,245557,NA,52.1050207129801,-2.8846674213323977
1001738,Offa's Dyke: the section extending 950yds (870m) N and S of Big Oaks,https://historicengland.org.uk/listing/the-list/list-entry/1001738,"SO 40636 43192, SO 40811 42789",340636,243192,NA,52.08388328057879,-2.867743676398603
1001739,Castle Frome Castle,https://historicengland.org.uk/listing/the-list/list-entry/1001739,SO 67112 45797,367112,245797,NA,52.109514558976855,-2.4816384726832688
1001740,Moated site SW of the church,https://historicengland.org.uk/listing/the-list/list-entry/1001740,SO 47274 39509,347274,239509,NA,52.05144738776732,-2.7703118062246603
1001741,Bronsil Castle,https://historicengland.org.uk/listing/the-list/list-entry/1001741,SO 74949 37212,374949,237212,NA,52.03274412979281,-2.366574053724797
1001742,Westington Camp,https://historicengland.org.uk/listing/the-list/list-entry/1001742,SO 58021 56622,358021,256622,NA,52.20621336563304,-2.6157179607734773
1001743,Camp in Chase Wood,https://historicengland.org.uk/listing/the-list/list-entry/1001743,SO 60234 22402,360234,222402,NA,51.89873502951426,-2.5793413190703096
1001744,Mortimer's Castle N and E of St Bartholomew's Church,https://historicengland.org.uk/listing/the-list/list-entry/1001744,SO 65727 32858,365727,232858,NA,51.993105066542924,-2.500558891289862
1001745,Great Howle Camp,https://historicengland.org.uk/listing/the-list/list-entry/1001745,SO 61151 20214,361151,220214,NA,51.8791288546693,-2.5657677450203873
1001746,Chapel and gatehouse,https://historicengland.org.uk/listing/the-list/list-entry/1001746,"SO 68712 56028, SO 68741 55979",368712,256028,NA,52.20158611435775,-2.459222484073012
1001747,Sutton Walls (camp),https://historicengland.org.uk/listing/the-list/list-entry/1001747,SO 52520 46404,352520,246404,NA,52.11390814616553,-2.6947784024072736
1001748,Wall Hills Camp,https://historicengland.org.uk/listing/the-list/list-entry/1001748,SO 62993 59797,362993,259797,NA,52.23511377812431,-2.5433123507649302
1001749,Risbury Camp,https://historicengland.org.uk/listing/the-list/list-entry/1001749,SO 54147 55250,354147,255250,NA,52.19356990825334,-2.6722179052048882
1001750,Croft Ambrey (camp),https://historicengland.org.uk/listing/the-list/list-entry/1001750,SO 44446 66779,344446,266779,NA,52.29631471354392,-2.8160228732652826
1001751,Oldcastle Twt,https://historicengland.org.uk/listing/the-list/list-entry/1001751,SO 32814 52020,332814,252020,NA,52.16234406926292,-2.9836232319267917
1001752,Almeley Castle,https://historicengland.org.uk/listing/the-list/list-entry/1001752,SO 33221 51435,333221,251435,NA,52.15713489458501,-2.977558895880303
1001753,Aston Tump,https://historicengland.org.uk/listing/the-list/list-entry/1001753,SO 46190 71900,346190,271900,NA,52.342523110766344,-2.791273850059981
1001754,Aconbury Camp,https://historicengland.org.uk/listing/the-list/list-entry/1001754,SO 50362 33063,350362,233063,NA,51.99378407340659,-2.72434668770742
1001755,Walterstone Camp,https://historicengland.org.uk/listing/the-list/list-entry/1001755,SO 34903 25096,334903,225096,NA,51.92056444500669,-2.9479526208961544
1001756,Eaton Camp,https://historicengland.org.uk/listing/the-list/list-entry/1001756,SO 45397 39300,345397,239300,NA,52.049386388832325,-2.797647671326811
1001757,Cherry Hill Camp,https://historicengland.org.uk/listing/the-list/list-entry/1001757,SO 57745 35213,357745,235213,NA,52.013725299956334,-2.6170925977681687
1001758,Dinedor Camp,https://historicengland.org.uk/listing/the-list/list-entry/1001758,SO 52357 36358,352357,236358,NA,52.02358132694987,-2.695752940924499
1001759,Capler Camp,https://historicengland.org.uk/listing/the-list/list-entry/1001759,SO 59244 32945,359244,232945,NA,51.99344794522593,-2.594981989751751
1001760,Wall Hills Camp,https://historicengland.org.uk/listing/the-list/list-entry/1001760,SO 69087 38179,369087,238179,NA,52.04114080794448,-2.4521081536149683
1001761,Kilpeck Castle and ancient village,https://historicengland.org.uk/listing/the-list/list-entry/1001761,"SO 44675 30571, SO 44492 30453",344492,230453,NA,51.969763728571735,-2.8094064761526267
1001762,Orcop Castle,https://historicengland.org.uk/listing/the-list/list-entry/1001762,SO 47289 26583,347289,226583,NA,51.93524546443283,-2.768101365308203
1001763,Pont-Hendre castle mound,https://historicengland.org.uk/listing/the-list/list-entry/1001763,SO 32593 28110,332593,228110,NA,51.94738338611469,-2.982127571784218
1001764,Flanesford Priory,https://historicengland.org.uk/listing/the-list/list-entry/1001764,SO 57905 19390,357905,219390,NA,51.87148452672398,-2.6128190255770525
1001765,Garway Dovecote,https://historicengland.org.uk/listing/the-list/list-entry/1001765,SO4554122413,345541,222413,NA,51.89758866178173,-2.792862991853851
1001766,Little Doward Camp,https://historicengland.org.uk/listing/the-list/list-entry/1001766,SO 53977 15981,353977,215981,NA,51.84052550889235,-2.669412525151644
1001767,The Market Hall,https://historicengland.org.uk/listing/the-list/list-entry/1001767,SO 59923 24133,359923,224133,NA,51.914275014376834,-2.5840628619106516
1001768,Site of Romano-British town of Magna,https://historicengland.org.uk/listing/the-list/list-entry/1001768,"SO 44134 42622, SO 43930 42686, SO 44051 42777",344051,242777,NA,52.08050897863735,-2.8178442318714736
1001769,Wilton Bridge,https://historicengland.org.uk/listing/the-list/list-entry/1001769,SO 59008 24207,359008,224207,NA,51.91487351366248,-2.5973735612312945
1001770,Mordiford Bridge,https://historicengland.org.uk/listing/the-list/list-entry/1001770,SO 56991 37455,356991,237455,NA,52.03382305993102,-2.628360654043641
1001771,Lugg Bridge,https://historicengland.org.uk/listing/the-list/list-entry/1001771,SO 53192 41810,353192,241810,NA,52.072665943696194,-2.6843333185820324
1001772,Chapel at Chapel Farm,https://historicengland.org.uk/listing/the-list/list-entry/1001772,SO 62701 30392,362701,230392,NA,51.97073933341191,-2.5443582611440103
1001773,Pembridge Castle (uninhabited parts),https://historicengland.org.uk/listing/the-list/list-entry/1001773,SO 48807 19291,348807,219265,NA,51.86959807327589,-2.7449343379337154
1001774,Clifford Castle,https://historicengland.org.uk/listing/the-list/list-entry/1001774,SO 24371 45675,324371,245675,NA,52.10421615850807,-3.1056164793288947
1001775,Lower Park Wood Camp,https://historicengland.org.uk/listing/the-list/list-entry/1001775,SO 35924 37674,335924,237674,NA,52.03375341634295,-2.935461704885538
1001776,Newton Tump,https://historicengland.org.uk/listing/the-list/list-entry/1001776,SO 29301 44059,329301,244059,NA,52.090342898265476,-3.0333145656194875
1001777,Bredwardine Castle,https://historicengland.org.uk/listing/the-list/list-entry/1001777,SO 33535 44357,333535,244357,NA,52.0935472568334,-2.971584542764119
1001778,"Motte and bailey, W of St Mary's Church",https://historicengland.org.uk/listing/the-list/list-entry/1001778,SO 33964 24999,333964,224999,NA,51.91958169375575,-2.961585481992073
1001779,Mound E of St Peter's Church,https://historicengland.org.uk/listing/the-list/list-entry/1001779,SO 36710 25553,336710,225553,NA,51.92488141439381,-2.92176577538075
1001780,Row Ditch (entrenchment),https://historicengland.org.uk/listing/the-list/list-entry/1001780,"SO 51018 39403, SO 51132 39399, SO 51817 39302",351817,239302,NA,52.050001012001744,-2.704037974878656
1001781,Manor Farm (uninhabited area),https://historicengland.org.uk/listing/the-list/list-entry/1001781,SU 35235 26355,435235,126355,NA,51.035481093812884,-1.4988648704414824
1001782,The Dykes,https://historicengland.org.uk/listing/the-list/list-entry/1001782,"SU 69313 31084, SU 69206 31085, SU 68873 31671, SU 69457 31273",468873,131671,NA,51.08023603569129,-1.018177015196038
1001783,"River Wey aqueduct, Headley Park",https://historicengland.org.uk/listing/the-list/list-entry/1001783,SU 81388 37211,481388,137211,NA,51.128405589715776,-0.8383071648595591
1001784,"River Wey aqueduct, Bramshott Court",https://historicengland.org.uk/listing/the-list/list-entry/1001784,SU 83285 33462,483285,133462,NA,51.09442927057072,-0.8120686687953992
1001785,"River Wey aqueduct, Radford Bridge, Liphook",https://historicengland.org.uk/listing/the-list/list-entry/1001785,SU 84173 32270,484173,132270,NA,51.08358356252579,-0.7996683942085737
1001786,Netherton medieval settlement earthworks,https://historicengland.org.uk/listing/the-list/list-entry/1001786,"SU 37495 57718, SU 37804 57601",437495,157718,NA,51.317341189735664,-1.4633728440897196
1001787,"Cuckoo's Corner Roman settlement, Neatham",https://historicengland.org.uk/listing/the-list/list-entry/1001787,SU 74072 41035,474072,141035,NA,51.16377661358321,-0.9420505847341988
1001788,Southwick brewhouse,https://historicengland.org.uk/listing/the-list/list-entry/1001788,SU 62662 08577,462662,108577,NA,50.873304386703815,-1.110803918046383
1001789,Gilkicker fort,https://historicengland.org.uk/listing/the-list/list-entry/1001789,SZ 60679 97497,460679,97497,NA,50.773889812578624,-1.1408131855415344
1001790,"Pickett Hamilton fort, Hilsea",https://historicengland.org.uk/listing/the-list/list-entry/1001790,SU 67325 03931,467325,103931,NA,50.8310077398944,-1.045394726077411
1001791,Eastney sewage pumping station,https://historicengland.org.uk/listing/the-list/list-entry/1001791,"SZ 67320 99266, SZ 67366 99264",467366,99264,NA,50.78904066324725,-1.0456678377725215
1001792,"Herefordshire Beacon Camp
See also WORCESTERSHIRE 3",https://historicengland.org.uk/listing/the-list/list-entry/1001792,SO 76057 39604,376057,239604,NA,52.05429848000922,-2.35059168825484
1001793,Wigmore Castle,https://historicengland.org.uk/listing/the-list/list-entry/1001793,SO 40904 69197,340904,269197,NA,52.317680235898685,-2.8683790951231325
1001794,"Andover-Redbridge canal, Chalk Hill Lock, Horsebridge",https://historicengland.org.uk/listing/the-list/list-entry/1001794,SU 34701 30724,434701,130724,NA,51.074798734563664,-1.5060627654242988
1001795,Hydraulic pillbox on Middle Wallop Aerodrome,https://historicengland.org.uk/listing/the-list/list-entry/1001795,SU 29900 38700,429900,138700,NA,51.14678675870177,-1.5739303952685249
1001796,"Iron Age hillfort in Ashley's Copse
See also WILTSHIRE 912",https://historicengland.org.uk/listing/the-list/list-entry/1001796,SU 25978 34860,425978,134860,NA,51.11244872354407,-1.6302733719125735
1001797,"Lomer, deserted medieval settlement",https://historicengland.org.uk/listing/the-list/list-entry/1001797,"SU 59286 23432, SU 59493 23248",459286,123432,NA,51.007226498809175,-1.1563657366006503
1001798,"Roman road E of St Catherine's Hill 
",https://historicengland.org.uk/listing/the-list/list-entry/1001798,"SU 48896 27858, SU 49157 27584",449157,127584,NA,51.045512119057534,-1.3001608563220028
1001799,Roman corn drier S of Tin Wood,https://historicengland.org.uk/listing/the-list/list-entry/1001799,SU 39237 33210,439237,133210,NA,51.09686071285825,-1.4410508428735165
1001800,"Black Barn, Warblington",https://historicengland.org.uk/listing/the-list/list-entry/1001800,SU 72822 05445,472822,105445,NA,50.84395576308855,-0.967053335585937
1001801,Enclosure in Preshaw Wood,https://historicengland.org.uk/listing/the-list/list-entry/1001801,SU 57824 23019,457824,123019,NA,51.00366163029325,-1.1772670972757666
1001802,Keyhole enclosure SE of Field Barn Farm,https://historicengland.org.uk/listing/the-list/list-entry/1001802,SU 60102 54793,460102,154793,NA,51.28910870347502,-1.1395105503292855
1001803,Circular and rectangular enclosures at Itchen Stoke and Ovington,https://historicengland.org.uk/listing/the-list/list-entry/1001803,SU 54156 26844,454156,126844,NA,51.038409965327126,-1.2289681146275218
1001804,Deserted medieval village,https://historicengland.org.uk/listing/the-list/list-entry/1001804,SU 70846 32248,470846,132248,NA,51.08518382808754,-0.9899030270260698
1001805,Deserted medieval village at Colemore,https://historicengland.org.uk/listing/the-list/list-entry/1001805,"SU 70476 30680, SU 70657 30590",470476,130680,NA,51.07113186341887,-0.9954899242926083
1001806,Linear earthwork known as the Festaen Dic,https://historicengland.org.uk/listing/the-list/list-entry/1001806,SU 79658 58531,479658,158531,NA,51.32031762258422,-0.8582928373044918
1001807,Fort Grange,https://historicengland.org.uk/listing/the-list/list-entry/1001807,SU5905500232,459055,100232,NA,50.798649177969565,-1.1634035449773437
1001808,"Fort Southwick
See also HAMPSHIRE 500",https://historicengland.org.uk/listing/the-list/list-entry/1001808,SU 62824 06926,462824,106838,NA,50.85765086232994,-1.1087999174988699
1001809,Pumping station,https://historicengland.org.uk/listing/the-list/list-entry/1001809,SU 49275 24850,449275,124850,NA,51.02091923978032,-1.2988486627635878
1001810,Gunboat Traverser System,https://historicengland.org.uk/listing/the-list/list-entry/1001810,SZ6165998976,461659,98976,NA,50.78708512503044,-1.1266688740953565
1001812,"Former Board of Ordnance Gunwharf, HMS Vernon",https://historicengland.org.uk/listing/the-list/list-entry/1001812,"SZ 63170 99793, SZ 63172 99787, SZ 63161 99687, SZ 63080 99888, SZ 63096 99731",463096,99731,NA,50.793719344517164,-1.1061567120005833
1001813,'The Battery',https://historicengland.org.uk/listing/the-list/list-entry/1001813,SU 75875 46182,475875,146182,NA,51.209813926799065,-0.9151845491413209
1001814,'Banjo type' native settlement,https://historicengland.org.uk/listing/the-list/list-entry/1001814,SU 53223 34701,453223,134701,NA,51.10914187909666,-1.2411196703547522
1001815,Iron Age settlement,https://historicengland.org.uk/listing/the-list/list-entry/1001815,SU 52315 37150,452315,137150,NA,51.13124496372842,-1.2537341550988674
1001816,Settlement W of West Stoke Farm,https://historicengland.org.uk/listing/the-list/list-entry/1001816,SU 47055 37197,447055,137197,NA,51.132122866178086,-1.3288939652216316
1001817,Anglo-Saxon cemetery in Worthy Park,https://historicengland.org.uk/listing/the-list/list-entry/1001817,SU 49949 32889,449949,132889,NA,51.093143522388225,-1.2881329591759139
1001818,"Funtley ironworks, site of",https://historicengland.org.uk/listing/the-list/list-entry/1001818,SU 54995 08188,454995,108188,NA,50.870585566610366,-1.219815800799133
1001819,Old wall and Jacobean monument in Hyde Close,https://historicengland.org.uk/listing/the-list/list-entry/1001819,SU 48031 30054,448031,130054,NA,51.06781617571366,-1.31589472457959
1001820,Deserted medieval town of Newtown,https://historicengland.org.uk/listing/the-list/list-entry/1001820,SU 47670 63764,447670,163764,NA,51.370941629406914,-1.3165748285084196
1001821,Foxcott deserted medieval village,https://historicengland.org.uk/listing/the-list/list-entry/1001821,"SU 34430 47279, SU 34317 47242",434317,147242,NA,51.223346292807946,-1.50997417420975
1001822,Roman villa SW of Wyck Place,https://historicengland.org.uk/listing/the-list/list-entry/1001822,SU 75868 39372,475868,139372,NA,51.14859057727455,-0.9167203365023289
1001823,Settlement site W of Bazeley Copse,https://historicengland.org.uk/listing/the-list/list-entry/1001823,SU 50444 37222,450444,137222,NA,51.13205982805341,-1.280460652051769
1001824,Enclosures S of the Cowleys,https://historicengland.org.uk/listing/the-list/list-entry/1001824,SU 56687 40548,456687,140548,NA,51.16138156865663,-1.1907254496766049
1001825,Late Iron Age settlement site N of Grace's Farm,https://historicengland.org.uk/listing/the-list/list-entry/1001825,SU 50673 33692,450673,133692,NA,51.10030021992026,-1.2776830592645934
1001826,Enclosure S of Marsh Court,https://historicengland.org.uk/listing/the-list/list-entry/1001826,SU 35668 33254,435668,133254,NA,51.09748876311604,-1.4920116133414731
1001827,Length of Roman road in Bradley Wood,https://historicengland.org.uk/listing/the-list/list-entry/1001827,SU 45681 51969,445681,151969,NA,51.26505401168262,-1.3466537880374634
1001828,Round barrow on Rabbit Warren,https://historicengland.org.uk/listing/the-list/list-entry/1001828,SU 44156 56749,444156,156749,NA,51.308152048831346,-1.367920161486633
1001829,"No. 5 Battery, Stokes Bay Lines",https://historicengland.org.uk/listing/the-list/list-entry/1001829,SZ6051198124,460511,98075,NA,50.77910446338106,-1.143100548207255
1001830,Eastney forts and perimeter defences of barracks,https://historicengland.org.uk/listing/the-list/list-entry/1001830,SZ6673698803,466736,98735,NA,50.78435699076807,-1.0547000336866268
1001831,Vault under Head Post Office,https://historicengland.org.uk/listing/the-list/list-entry/1001831,SU 42036 11207,442036,111207,NA,50.898817399439515,-1.4036222115187191
1001832,"Castle Gateway, Castle Lane",https://historicengland.org.uk/listing/the-list/list-entry/1001832,SU 41939 11483,441939,111483,NA,50.90130619997982,-1.4049698480859267
1001833,Three round barrows near Bulls Bushes Farm,https://historicengland.org.uk/listing/the-list/list-entry/1001833,"SU 57174 48808, SU 56983 48541, SU 57252 48509",457174,148808,NA,51.235598987857024,-1.1824488019769879
1001834,White Barrow,https://historicengland.org.uk/listing/the-list/list-entry/1001834,SU 58808 51195,458808,151195,NA,51.25689448488838,-1.1586554318039914
1001835,Iron Age settlement 400m SE of Battle Down Farm,https://historicengland.org.uk/listing/the-list/list-entry/1001835,SU 59640 50295,459640,150295,NA,51.24871646218829,-1.1468838650243218
1001836,The Grange,https://historicengland.org.uk/listing/the-list/list-entry/1001836,SU 56204 36190,456204,136190,NA,51.12224575903086,-1.1983106605050327
1001837,"Cuckoo's Corner Roman site, Neatham",https://historicengland.org.uk/listing/the-list/list-entry/1001837,SU7391241340,473912,141340,NA,51.166539366089474,-0.9442757979196439
1001838,Roman site 400yds (370m) S of Fairthorn,https://historicengland.org.uk/listing/the-list/list-entry/1001838,SU 52094 11848,452094,111848,NA,50.903763222912325,-1.2605185304938518
1001839,Roman villa 500yds (460m) SW of Clanville House,https://historicengland.org.uk/listing/the-list/list-entry/1001839,SU 31458 48973,431458,148973,NA,51.2390749085024,-1.5507612449719255
1001840,Beach Barrow,https://historicengland.org.uk/listing/the-list/list-entry/1001840,SU 31994 31115,431994,131115,NA,51.07847131866773,-1.544666009646455
1001841,Fort Elson,https://historicengland.org.uk/listing/the-list/list-entry/1001841,SU 59902 02893,459902,102893,NA,50.82248890421054,-1.1509528881563476
1001842,"Fort Purbrook, including covered-way to east",https://historicengland.org.uk/listing/the-list/list-entry/1001842,"SU 68409 06562, SU 67943 06461",467943,106461,NA,50.8536834078074,-1.0361523798639232
1001843,Vault S of junction of High Street and Castle Way,https://historicengland.org.uk/listing/the-list/list-entry/1001843,SU 41990 11108,441990,111108,NA,50.897930538384486,-1.4042876430273905
1001844,Fort Monckton,https://historicengland.org.uk/listing/the-list/list-entry/1001844,SZ6107297850,461072,97850,NA,50.77702266127091,-1.1351817957673553
1001845,Earthwork in Great Park,https://historicengland.org.uk/listing/the-list/list-entry/1001845,SU 69489 44596,469489,144596,NA,51.19636635045123,-1.006895255699908
1001846,Earthworks in Danegrove Copse,https://historicengland.org.uk/listing/the-list/list-entry/1001846,SU 44147 54497,444147,154497,NA,51.28790449788806,-1.3683271087275384
1001847,Vault adjoining St Michael's Church,https://historicengland.org.uk/listing/the-list/list-entry/1001847,SU 41909 11295,441909,111295,NA,50.89961789392144,-1.405417964151731
1001848,Roman villa in Bottom Copse,https://historicengland.org.uk/listing/the-list/list-entry/1001848,SU 62461 15612,462461,115612,NA,50.93657994437541,-1.1124586198147406
1001849,"Bastion No 1, Gosport Lines",https://historicengland.org.uk/listing/the-list/list-entry/1001849,SZ6213999513,462139,99513,NA,50.79186240403662,-1.1197697745956259
1001850,A length of the Gosport Lines west of Weevil Lane,https://historicengland.org.uk/listing/the-list/list-entry/1001850,SU6154300251,461543,100251,NA,50.79856161222793,-1.1281010537929361
1001851,"Portsmouth Dockyard, the Block Mills and Stores 35 and 36",https://historicengland.org.uk/listing/the-list/list-entry/1001851,SU 62861 00816,462861,100816,NA,50.803500570484026,-1.1093050952067183
1001852,"Portsmouth Dockyard, the Docks",https://historicengland.org.uk/listing/the-list/list-entry/1001852,SU 62808 00626,462808,100626,NA,50.801797931028865,-1.1100895659838548
1001853,Section of Roman road 250yds (230m) long SW of Titlark Farm,https://historicengland.org.uk/listing/the-list/list-entry/1001853,SU 42605 19778,442605,119778,NA,50.97584480665863,-1.3945319946538657
1001854,Roman villa N of Bighton Wood,https://historicengland.org.uk/listing/the-list/list-entry/1001854,SU 62248 36390,462248,136390,NA,51.12342030257554,-1.1119273906945017
1001856,Fort Fareham,https://historicengland.org.uk/listing/the-list/list-entry/1001856,SU 57232 04906,457232,104906,NA,50.84085854339049,-1.1885404428650783
1001857,Roman site NW of Woodgarston Farm,https://historicengland.org.uk/listing/the-list/list-entry/1001857,SU 57972 55817,457972,155817,NA,51.29853570837147,-1.1698856847953378
1001858,Round barrow S of Down Farm,https://historicengland.org.uk/listing/the-list/list-entry/1001858,SU 61296 40040,461296,140040,NA,51.15633981756557,-1.1249086005875029
1001859,Roman villa and section of Roman road south-west of Littlepark Wood,https://historicengland.org.uk/listing/the-list/list-entry/1001859,SU6917907192,469179,107182,NA,50.86001974105338,-1.0184601131001532
1001860,Fort Nelson,https://historicengland.org.uk/listing/the-list/list-entry/1001860,SU 60697 07204,460697,107204,NA,50.8611684792611,-1.1389548825839437
1001861,Hilsea Lines,https://historicengland.org.uk/listing/the-list/list-entry/1001861,SU6602304224,466254,104304,NA,50.834484861504535,-1.0605327590267613
1001862,Fort Widley,https://historicengland.org.uk/listing/the-list/list-entry/1001862,SU 65680 06524,465680,106524,NA,50.854510835860424,-1.0682852698517227
1001863,"Vault under St Michael's Parish Hall, St Michael's Square",https://historicengland.org.uk/listing/the-list/list-entry/1001863,SU 41897 11318,441897,111318,NA,50.8998255762991,-1.4055859643064523
1001864,Vault under 8 St Michael's Square,https://historicengland.org.uk/listing/the-list/list-entry/1001864,SU 41888 11318,441888,111318,NA,50.89982622750478,-1.4057139389558302
1001865,"Mound at Cudbury Clump, Eversley Upper Common",https://historicengland.org.uk/listing/the-list/list-entry/1001865,SU 76210 60578,476210,160578,NA,51.33919202771049,-0.9073245513318171
1001866,Deserted village of Abbotstone,https://historicengland.org.uk/listing/the-list/list-entry/1001866,SU5677434433,456774,134433,NA,51.106392195255964,-1.1904431200372676
1001867,"Alice Holt Forest, Romano-British kiln sites",https://historicengland.org.uk/listing/the-list/list-entry/1001867,"SU 80635 39947, SU 80620 40250, SU 81113 40129, SU 81074 39701, SU 81015 39651, SU 80824 39650",481113,140129,NA,51.15467789076255,-0.8415798745066201
1001868,Winchester city wall and associated monuments,https://historicengland.org.uk/listing/the-list/list-entry/1001868,"SU 47929 29863, SU 48108 29843, SU 48186 29819, SU 48586 29252",448108,129843,NA,51.06591253792865,-1.314823891627918
1001869,Southsea Castle,https://historicengland.org.uk/listing/the-list/list-entry/1001869,SZ 64332 98013,464332,98013,NA,50.77813643427173,-1.0889228053468543
1001870,Point Battery including King Edward's Tower and Square Tower,https://historicengland.org.uk/listing/the-list/list-entry/1001870,SZ 63025 99303,463025,99303,NA,50.78987870755002,-1.1072372243321509
1001871,Site of fortified manor,https://historicengland.org.uk/listing/the-list/list-entry/1001871,SU 28864 45662,428864,145662,NA,51.20944015332406,-1.588183613742264
1001872,St Denys Priory (remains of),https://historicengland.org.uk/listing/the-list/list-entry/1001872,SU 43615 14149,443615,114149,NA,50.92515462030377,-1.3808195907397474
1001873,Fort Blockhouse,https://historicengland.org.uk/listing/the-list/list-entry/1001873,SZ6258999250,462589,99250,NA,50.78944931442061,-1.1134309328569603
1001874,Site of Norman town house in curtilage of St Michael's House,https://historicengland.org.uk/listing/the-list/list-entry/1001874,SU 41836 11302,441836,111302,NA,50.89968611672508,-1.406455176385202
1001875,John of Gaunt's Palace,https://historicengland.org.uk/listing/the-list/list-entry/1001875,SU 35987 30870,435987,130870,NA,51.07603257838954,-1.4876929820662215
1001876,Roman buildings on Lambourne's Hill,https://historicengland.org.uk/listing/the-list/list-entry/1001876,SU 29544 50312,429544,150312,NA,51.251216627386846,-1.5780675145039504
1001877,Vault SW of Gloucester Square,https://historicengland.org.uk/listing/the-list/list-entry/1001877,SU 42027 11031,442027,111031,NA,50.897235476984655,-1.4037703841916647
1001878,Earthwork on Farther Commons,https://historicengland.org.uk/listing/the-list/list-entry/1001878,SU 78296 26488,478296,126488,NA,51.03243189964835,-0.8848038750433064
1001879,"Roman villa at Lodge Farm, North Warnborough",https://historicengland.org.uk/listing/the-list/list-entry/1001879,SU 73611 52639,473611,152639,NA,51.268160451276344,-0.9462639667326455
1001880,Bramdean Roman villa,https://historicengland.org.uk/listing/the-list/list-entry/1001880,SU 62738 28135,462738,128135,NA,51.04914617985766,-1.1063577483202152
1001881,Holy Rood Church,https://historicengland.org.uk/listing/the-list/list-entry/1001881,SU 42055 11305,442055,111305,NA,50.899697226415135,-1.4033407922656018
1001882,Deserted village (site of),https://historicengland.org.uk/listing/the-list/list-entry/1001882,SU 33546 30912,433546,130912,NA,51.076557648470626,-1.5225309571285541
1001883,Selborne Priory,https://historicengland.org.uk/listing/the-list/list-entry/1001883,SU 75590 34546,475590,134546,NA,51.105239415487965,-0.9217046431889828
1001884,Netley Castle,https://historicengland.org.uk/listing/the-list/list-entry/1001884,SU 45138 08845,445138,108845,NA,50.87734510949846,-1.3598059348734417
1001885,Castle Hill,https://historicengland.org.uk/listing/the-list/list-entry/1001885,SU 40586 16895,440586,116895,NA,50.95006677556846,-1.423608596428506
1001886,Four round barrows in 'Hump Field' S of Stakes Lane,https://historicengland.org.uk/listing/the-list/list-entry/1001886,"SU 57515 20983, SU 57516 20925, SU 57391 20899, SU 57429 20901",457515,120983,NA,50.98538620082728,-1.181992287693905
1001887,'King John's Palace',https://historicengland.org.uk/listing/the-list/list-entry/1001887,SU 41821 11285,441821,111285,NA,50.89953433792544,-1.4066704086686694
1001888,Castle wall,https://historicengland.org.uk/listing/the-list/list-entry/1001888,"SU 41852 11418, SU 41903 11516",441903,111516,NA,50.901605539596645,-1.405477985700098
1001889,Castle (part of),https://historicengland.org.uk/listing/the-list/list-entry/1001889,SU 41842 11436,441842,111436,NA,50.9008905989136,-1.4063545459287872
1001890,Twyford Roman villa,https://historicengland.org.uk/listing/the-list/list-entry/1001890,SU 48339 24409,448339,124409,NA,51.017033235864545,-1.3122510580323465
1001891,"West Dean Roman villa
See also WILTSHIRE 921",https://historicengland.org.uk/listing/the-list/list-entry/1001891,SU 25792 27108,425792,127108,NA,51.04275162699593,-1.6334811126210134
1001892,"Lankasters vault, High Street",https://historicengland.org.uk/listing/the-list/list-entry/1001892,SU 42003 11352,442003,111352,NA,50.900123620774764,-1.4040748070514533
1001893,"The Weigh House, French Street",https://historicengland.org.uk/listing/the-list/list-entry/1001893,SU 41930 11109,441930,111109,NA,50.89794387838858,-1.40514065810718
1001894,"Conduit head, Commercial Road",https://historicengland.org.uk/listing/the-list/list-entry/1001894,SU 41582 12338,441582,112338,NA,50.90902003140008,-1.4099492075040283
1001895,Vaults on the W side of French Street,https://historicengland.org.uk/listing/the-list/list-entry/1001895,SU 41921 11210,441921,111210,NA,50.898852712960256,-1.4052570641382776
1001896,Quilter's and adjoining vaults in High Street,https://historicengland.org.uk/listing/the-list/list-entry/1001896,SU 41982 11011,441982,111011,NA,50.89705890323436,-1.4044125147500852
1001897,Vault in High Street opposite Gloucester Square,https://historicengland.org.uk/listing/the-list/list-entry/1001897,SU 41990 11050,441990,111050,NA,50.89740900763949,-1.4042942941077954
1001898,Vault on N side of St Michael's Square,https://historicengland.org.uk/listing/the-list/list-entry/1001898,SU 41904 11319,441904,111319,NA,50.8998340616168,-1.4054863140189409
1001899,"Conduit head, Hill Lane",https://historicengland.org.uk/listing/the-list/list-entry/1001899,SU 41217 12575,441217,112575,NA,50.911177220389085,-1.4151136257846824
1001900,Three barrows SW of Newton Down Farm,https://historicengland.org.uk/listing/the-list/list-entry/1001900,"SU 41845 38951, SU 41867 38914, SU 41808 38875",441808,138875,NA,51.14761671843805,-1.4036824016188725
1001901,Roman house 1/2 mile (810m) E of Finkley Farm,https://historicengland.org.uk/listing/the-list/list-entry/1001901,SU 39836 48348,439836,148348,NA,51.23293344907614,-1.4308252380633584
1001902,Southwick Priory,https://historicengland.org.uk/listing/the-list/list-entry/1001902,SU 62924 08401,462924,108401,NA,50.87169349640378,-1.1071110279928211
1001903,Corhampton British village on Corhampton Down,https://historicengland.org.uk/listing/the-list/list-entry/1001903,SU 57410 20173,457410,120173,NA,50.978113666271994,-1.1836156961984456
1001904,Portsmouth Garrison church,https://historicengland.org.uk/listing/the-list/list-entry/1001904,SZ 63263 99208,463263,99208,NA,50.78899863932528,-1.1038775082604086
1001905,"Roman villa at Stroud, site near Petersfield",https://historicengland.org.uk/listing/the-list/list-entry/1001905,SU 72516 23574,472516,123574,NA,51.006990116781296,-0.9677987694980599
1001906,Earthwork 1/2 mile (810m) NW of Larkwhistle Farm,https://historicengland.org.uk/listing/the-list/list-entry/1001906,SU 45323 36812,445323,136812,NA,51.12880050559837,-1.35369336475793
1001907,Worthy Down ditch,https://historicengland.org.uk/listing/the-list/list-entry/1001907,SU 45956 34805,445956,134805,NA,51.11070432252174,-1.3449033134923765
1001908,Roman villa in Cow Down Copse,https://historicengland.org.uk/listing/the-list/list-entry/1001908,SU 41460 30104,441460,130104,NA,51.068776717669486,-1.4096622987241676
1001909,"St Peter's Church, Lainston House",https://historicengland.org.uk/listing/the-list/list-entry/1001909,SU 44242 31591,444242,131591,NA,51.081940042260754,-1.3697787509654327
1001910,"Alresford Drive earthworks, Avington",https://historicengland.org.uk/listing/the-list/list-entry/1001910,"SU 52358 31835, SU 52323 31417, SU 52696 30869, SU 53002 30432",452696,130869,NA,51.07473572670922,-1.249204780900038
1001911,Egbury camp,https://historicengland.org.uk/listing/the-list/list-entry/1001911,SU 43875 51805,443875,151805,NA,51.26372096348231,-1.372556924838359
1001912,Powderham Castle,https://historicengland.org.uk/listing/the-list/list-entry/1001912,SU 80264 46871,480264,146871,NA,51.215409012159554,-0.8522125029498397
1001913,Warblington Castle,https://historicengland.org.uk/listing/the-list/list-entry/1001913,SU 72895 05557,472895,105557,NA,50.84495357788752,-0.9659944181286978
1001914,Cutthorn,https://historicengland.org.uk/listing/the-list/list-entry/1001914,SU 41880 15325,441880,115325,NA,50.935857270416335,-1.4053688756263827
1001915,Woodgarston ring motte,https://historicengland.org.uk/listing/the-list/list-entry/1001915,SU 58453 55077,458453,155077,NA,51.29183341339379,-1.16310837174799
1001916,Berisbury camp near Hampshire Gate,https://historicengland.org.uk/listing/the-list/list-entry/1001916,"SU 32614 54175, SU 32553 54127, SU 32609 54086",432614,154175,NA,51.2857841809981,-1.5337299210163289
1001917,Old Pound Copse earthwork,https://historicengland.org.uk/listing/the-list/list-entry/1001917,SU 39632 44650,439632,144650,NA,51.19969718283272,-1.4341544503920869
1001918,Ellisfield camp W of Upper Common,https://historicengland.org.uk/listing/the-list/list-entry/1001918,SU 62960 45334,462960,145334,NA,51.20375702926123,-1.1001922682379852
1001919,Barley Pound earthworks,https://historicengland.org.uk/listing/the-list/list-entry/1001919,SU 79640 46694,479640,146694,NA,51.21390501031371,-0.8611838922914852
1001920,Medstead camp in grounds of manor house,https://historicengland.org.uk/listing/the-list/list-entry/1001920,SU 65672 37391,465672,137391,NA,51.13203851350504,-1.0628271789403092
1001921,"Roman earthworks on Stoner Hill, Ridge Hanger",https://historicengland.org.uk/listing/the-list/list-entry/1001921,"SU 71591 25054, SU 71552 24964",471591,125054,NA,51.02041217372002,-0.9806890079442211
1001922,Earthwork at Penley,https://historicengland.org.uk/listing/the-list/list-entry/1001922,SU 77605 45865,477605,145865,NA,51.20673190624211,-0.8904919344630375
1001923,The Castle,https://historicengland.org.uk/listing/the-list/list-entry/1001923,SU 73319 10540,473319,110540,NA,50.889702030363445,-0.9589759572261599
1001924,Pyotts Hill entrenchment,https://historicengland.org.uk/listing/the-list/list-entry/1001924,SU 66485 55045,466485,155045,NA,51.29066619047171,-1.0479432039386718
1001925,Town wall: Gods House Gate and Tower,https://historicengland.org.uk/listing/the-list/list-entry/1001925,SU 42099 10935,442099,110935,NA,50.89636702336881,-1.4027576810889222
1001926,Town wall: section from Bargate E and including Polymond Tower,https://historicengland.org.uk/listing/the-list/list-entry/1001926,SU 42095 11626,442095,111626,NA,50.902580719921694,-1.402735108013367
1001927,Town wall: section from 75yds (70m) E of Arundel Tower to limit of castle site including Arundel and Catchcold Towers,https://historicengland.org.uk/listing/the-list/list-entry/1001927,"SU 41922 11635, SU 41864 11558",441864,111558,NA,50.90198602110309,-1.4060277607423886
1001928,Town wall: section between Simnal Street and the site of the Bugle Tower excluding the West Gate,https://historicengland.org.uk/listing/the-list/list-entry/1001928,"SU 41814 11276, SU 41786 11203",441814,111276,NA,50.89945391630881,-1.406770971738815
1001929,Town wall: the West Gate,https://historicengland.org.uk/listing/the-list/list-entry/1001929,SU 41799 11221,441799,111221,NA,50.89896044427595,-1.4069905400142986
1001930,Town wall: the Bar Gate,https://historicengland.org.uk/listing/the-list/list-entry/1001930,SU 41997 11637,441997,111637,NA,50.90268674849232,-1.4041274295449886
1001931,Town wall: remains of E side of town wall S of East Street and N of Gods House Tower,https://historicengland.org.uk/listing/the-list/list-entry/1001931,"SU 42149 11505, SU 42104 11021, SU 42096 10976",442104,111021,NA,50.89713996392662,-1.4026767010888415
1001932,"Town wall: the Water Gate, High Street",https://historicengland.org.uk/listing/the-list/list-entry/1001932,SU 41976 10979,441976,110979,NA,50.89677159707867,-1.4045014942860472
1001933,Town wall: section between Bugle Street and Bugle Tower,https://historicengland.org.uk/listing/the-list/list-entry/1001933,"SU 41796 11127, SU 41821 11089",441821,111089,NA,50.89777192321894,-1.4066927952818102
1001934,"The 'Undercroft', Simnel Street",https://historicengland.org.uk/listing/the-list/list-entry/1001934,SU 41887 11351,441887,111351,NA,50.90012303282171,-1.4057243829378625
1001935,"Canute's Palace, Porters Lane",https://historicengland.org.uk/listing/the-list/list-entry/1001935,SU 41950 11001,441950,111001,NA,50.89697130336496,-1.4048686542888553
1001936,"The Tudor House, St Michael's Square",https://historicengland.org.uk/listing/the-list/list-entry/1001936,SU 41858 11283,441858,111283,NA,50.89951368035143,-1.4061445225429146
1001937,The West Gate,https://historicengland.org.uk/listing/the-list/list-entry/1001937,SU 47813 29576,447813,129576,NA,51.06353639670014,-1.319068747568985
1001938,The Kings Gate,https://historicengland.org.uk/listing/the-list/list-entry/1001938,SU 48144 29092,448144,129092,NA,51.059156913285364,-1.3144098827596
1001939,Hyde Abbey gateway,https://historicengland.org.uk/listing/the-list/list-entry/1001939,SU 48162 30131,448162,130131,NA,51.068497568950065,-1.3140150506578687
1001940,The Moat,https://historicengland.org.uk/listing/the-list/list-entry/1001940,SU 36183 37213,436183,137213,NA,51.133054715293596,-1.4842614111868886
1001941,The Ring earthwork,https://historicengland.org.uk/listing/the-list/list-entry/1001941,SU 41352 17001,441352,117001,NA,50.950965614496525,-1.4126927697111396
1001942,"St Nicholas Chapel and deserted medieval village, Westbury",https://historicengland.org.uk/listing/the-list/list-entry/1001942,SU 65619 23975,465619,123975,NA,51.01142229707414,-1.0660151010686558
1001943,King John's House (or St John's House) in Warnford Park,https://historicengland.org.uk/listing/the-list/list-entry/1001943,SU 62296 22646,462296,122646,NA,50.99984193843085,-1.1136039451554833
1001944,Bulls Down camp,https://historicengland.org.uk/listing/the-list/list-entry/1001944,SU 67082 58382,467082,158382,NA,51.32059759039406,-1.03875668538589
1001945,"Tourner Bury, Hayling Island, South Hayling",https://historicengland.org.uk/listing/the-list/list-entry/1001945,SZ 73161 99856,473161,99856,NA,50.79366211864353,-0.963352196095058
1001946,Dunwood camp,https://historicengland.org.uk/listing/the-list/list-entry/1001946,SU 31307 23061,431307,123061,NA,51.006088317070436,-1.5551662110909312
1001947,Toot Hill camp,https://historicengland.org.uk/listing/the-list/list-entry/1001947,SU 38161 18637,438161,118637,NA,50.96589584327715,-1.4579459661205967
1001948,Holbury Wood camp,https://historicengland.org.uk/listing/the-list/list-entry/1001948,SU 28537 27413,428537,127413,NA,51.04536491762679,-1.594303764006615
1001949,Danebury Hill camp,https://historicengland.org.uk/listing/the-list/list-entry/1001949,SU 32414 37668,432414,137668,NA,51.13737094922811,-1.5380841403226693
1001950,Tidbury Ring,https://historicengland.org.uk/listing/the-list/list-entry/1001950,SU 46270 42909,446270,142909,NA,51.1835455240369,-1.3393791804777624
1001951,Bury Hill camp,https://historicengland.org.uk/listing/the-list/list-entry/1001951,SU 34569 43566,434569,143566,NA,51.19027807727949,-1.506718785448974
1001952,Quarley Hill camp,https://historicengland.org.uk/listing/the-list/list-entry/1001952,SU 26248 42333,426248,142333,NA,51.17963234080081,-1.6258739626800107
1001953,Remains of eastern wall of the Roman fort,https://historicengland.org.uk/listing/the-list/list-entry/1001953,SJ 83268 97584,383268,397584,NA,53.474716170152966,-2.2535550441423555
1001954,Marple aqueduct,https://historicengland.org.uk/listing/the-list/list-entry/1001954,SJ 95526 90050,395526,390050,NA,53.407246435012546,-2.0687644346868828
1001955,"Oldknow's limekilns, Strines Road",https://historicengland.org.uk/listing/the-list/list-entry/1001955,SJ 96295 88438,396295,388438,NA,53.392763014497476,-2.0571773908784965
1001956,Canal tunnel entrances and wharf,https://historicengland.org.uk/listing/the-list/list-entry/1001956,SD 74807 00540,374807,400540,NA,53.500946648356084,-2.381265675485102
1001957,Ringley Old Bridge,https://historicengland.org.uk/listing/the-list/list-entry/1001957,SD 76327 05313,376327,405313,NA,53.54391823950745,-2.358713944205228
1001958,Ellenroad Ring Mill,https://historicengland.org.uk/listing/the-list/list-entry/1001958,SD 93026 11634,393026,411634,NA,53.601224044897556,-2.1068581219388522
1001959,Winchester Castle,https://historicengland.org.uk/listing/the-list/list-entry/1001959,SU 47734 29387,447734,129387,NA,51.061843560665146,-1.3202208988102206
1001960,Netley Abbey,https://historicengland.org.uk/listing/the-list/list-entry/1001960,SU4532408974,445324,108984,NA,50.87858045592001,-1.3571452326529203
1001961,Basing House and the Grange Field,https://historicengland.org.uk/listing/the-list/list-entry/1001961,SU6624152685,466241,152597,NA,51.268685657283946,-1.0518949014881307
1001962,Godsfield Chapel,https://historicengland.org.uk/listing/the-list/list-entry/1001962,SU 60431 37049,460431,137049,NA,51.12953958742909,-1.1377767203327083
1001963,Hanwell flight of locks and brick boundary wall of St Bernard's Hospital,https://historicengland.org.uk/listing/the-list/list-entry/1001963,"TQ 14726 79786, TQ 14607 79781, TQ 14438 79752, TQ 14823 79748, TQ 14582 79797, TQ 14903 79686, TQ 14984 79609",514823,179748,NA,51.50501013311933,-0.34700157740191323
1001964,Fulham Palace moated site,https://historicengland.org.uk/listing/the-list/list-entry/1001964,"TQ 24049 76125, TQ 24015 76132, TQ 24128 76192",524128,176167,NA,51.47086218591841,-0.21425871793750972
1001965,"Baynard's Castle, 78m south-west of St Benet Metropolitan Welsh Church",https://historicengland.org.uk/listing/the-list/list-entry/1001965,TQ 31924 80874,531924,180874,NA,51.511399621719086,-0.10032257330228038
1001966,"Elmers End moated site, South Norwood",https://historicengland.org.uk/listing/the-list/list-entry/1001966,TQ 35456 68328,535456,168328,NA,51.397822157081826,-0.054256525362454296
1001967,"Bonner Hall Bridge, Regent's Canal",https://historicengland.org.uk/listing/the-list/list-entry/1001967,TQ 35417 83447,535417,183447,NA,51.53369556634268,-0.04903021611946318
1001968,"Three Colt Bridge, Gunmaker's Lane",https://historicengland.org.uk/listing/the-list/list-entry/1001968,TQ 36436 83723,536436,183723,NA,51.53593062385159,-0.034241281951399846
1001969,Parnell Road Bridge,https://historicengland.org.uk/listing/the-list/list-entry/1001969,TQ 36762 83990,536762,183990,NA,51.53825109792644,-0.029440327266366206
1001970,"Iron Age settlement on Horsenden Hill, Greenford",https://historicengland.org.uk/listing/the-list/list-entry/1001970,TQ 16186 84366,516186,184366,NA,51.546236526287736,-0.3258506333335745
1001971,"Medieval moated site, 454m south-west of Sudbury Golf Club House",https://historicengland.org.uk/listing/the-list/list-entry/1001971,TQ 16823 84186,516823,184186,NA,51.544487398356466,-0.3167282738846939
1001972,"Medieval moated site, 408m ENE of Highland's School",https://historicengland.org.uk/listing/the-list/list-entry/1001972,TQ 31407 96333,531407,196333,NA,51.65044100580876,-0.10198866094775609
1001973,"Romano-British masonry building and Saxon cemetery, Fordcroft, Orpington",https://historicengland.org.uk/listing/the-list/list-entry/1001973,TQ 46710 67596,546710,167596,NA,51.3884486348519,0.10710044536470865
1001974,"Romano-British site, Wickham Court Farm, West Wickham",https://historicengland.org.uk/listing/the-list/list-entry/1001974,TQ 38726 64863,538726,164863,NA,51.36589547185933,-0.008633633770750552
1001975,"Remains of St Pancras Church, Pancras Lane",https://historicengland.org.uk/listing/the-list/list-entry/1001975,TQ3249981097,532499,181097,NA,51.51326917964763,-0.09195782319289104
1001976,"The Augustinian Priory of St Mary at Merton, 271m ENE of Abbey Wall Works",https://historicengland.org.uk/listing/the-list/list-entry/1001976,TQ 26564 69922,526564,169922,NA,51.41419916951529,-0.18143607552603772
1001977,Kempton Park Pumping Station,https://historicengland.org.uk/listing/the-list/list-entry/1001977,TQ1101170854,511011,170854,NA,51.42583151943029,-0.4046923533344388
1001978,"Northolt Manor, moated site",https://historicengland.org.uk/listing/the-list/list-entry/1001978,TQ 13253 84076,513253,184076,NA,51.544225720058336,-0.3682226000578678
1001979,"Roman riverboat, 136m west of Greenwood Theatre",https://historicengland.org.uk/listing/the-list/list-entry/1001979,TQ 32810 79923,532810,179923,NA,51.50264614585732,-0.08792045045077632
1001980,Tower Hill West,https://historicengland.org.uk/listing/the-list/list-entry/1001980,TQ 33447 80632,533447,180632,NA,51.508867597810074,-0.07848032780232554
1001981,"Huggin Hill Roman bath house, 120m WNW of St James's Church",https://historicengland.org.uk/listing/the-list/list-entry/1001981,TQ 32269 80893,532269,180893,NA,51.51148978183076,-0.09534683420776746
1001982,Priory and Hospital of St Mary Spital,https://historicengland.org.uk/listing/the-list/list-entry/1001982,TQ 33458 81957,533458,181850,NA,51.51981041264673,-0.07786120806084595
1001983,"Medieval moated manor house, 43m west of Cathay House",https://historicengland.org.uk/listing/the-list/list-entry/1001983,TQ 34799 79693,534799,179693,NA,51.500108858189705,-0.05936911134559352
1001984,"Abbey buildings, Bermondsey",https://historicengland.org.uk/listing/the-list/list-entry/1001984,TQ 33358 79348,533358,179348,NA,51.497350043155706,-0.08024700064320998
1001985,Hall Place,https://historicengland.org.uk/listing/the-list/list-entry/1001985,TQ 50145 74309,550145,174309,NA,51.44786872501885,0.15927149196892929
1001986,Howbury moated site,https://historicengland.org.uk/listing/the-list/list-entry/1001986,TQ 52788 76672,552788,176672,NA,51.46839376676549,0.1982957885896617
1001987,Section of Roman road on Gidea Park golf course,https://historicengland.org.uk/listing/the-list/list-entry/1001987,TQ 52584 90203,552584,190203,NA,51.59002203735771,0.20121814734470392
1001988,"Dagnam Park Farm moated site, Noak Hill, Romford",https://historicengland.org.uk/listing/the-list/list-entry/1001988,TQ 54964 92629,554964,192629,NA,51.61116934358974,0.2366173883289849
1001989,Flash Road aqueduct,https://historicengland.org.uk/listing/the-list/list-entry/1001989,TQ 32296 99376,532296,199376,NA,51.67757773483316,-0.08799548263363036
1001990,Roman villa E of Beddington Park,https://historicengland.org.uk/listing/the-list/list-entry/1001990,TQ 29793 65686,529793,165686,NA,51.37540152330255,-0.13657762887748495
1001991,"Medieval grange barn, 228m south-east of Upminster Court",https://historicengland.org.uk/listing/the-list/list-entry/1001991,TQ 56523 87740,556523,187740,NA,51.56681402186371,0.25693558350317697
1001992,Orpington Roman villa,https://historicengland.org.uk/listing/the-list/list-entry/1001992,TQ 45414 65846,545414,165846,NA,51.37305698229057,0.08777217568823482
1001993,Structures of archaeological interest below Billingsgate Market,https://historicengland.org.uk/listing/the-list/list-entry/1001993,TQ 33060 80627,533060,180627,NA,51.50891384296342,-0.08405535331636539
1001994,Queenhithe dock,https://historicengland.org.uk/listing/the-list/list-entry/1001994,TQ 32266 80766,532266,180766,NA,51.510349201052186,-0.09543763890810704
1001995,Smiths' Wharf,https://historicengland.org.uk/listing/the-list/list-entry/1001995,TQ 32273 80802,532273,180802,NA,51.510671077084325,-0.09532333565107748
1001996,"Linear earthworks in Pear Wood, W of Watling Street",https://historicengland.org.uk/listing/the-list/list-entry/1001996,"TQ 17173 93499, TQ 17328 93599",517328,193599,NA,51.62898119635275,-0.306306254894694
1001997,Roman governor's palace (site of),https://historicengland.org.uk/listing/the-list/list-entry/1001997,TQ 32652 80821,532653,180790,NA,51.51047423765449,-0.08985527053798005
1001998,Milestone in Sutton High Street,https://historicengland.org.uk/listing/the-list/list-entry/1001998,TQ 25806 64537,525806,164537,NA,51.3659718518034,-0.19423639025380196
1001999,"Milestone outside No. 135 Cheam Road, Cheam",https://historicengland.org.uk/listing/the-list/list-entry/1001999,TQ 24915 63805,524915,163805,NA,51.359589646891074,-0.2072853764901079
1002000,Milestone in Brighton Road,https://historicengland.org.uk/listing/the-list/list-entry/1002000,TQ 25968 62962,525968,162962,NA,51.35178113452891,-0.19246785066487404
1002001,Medieval moated site 382m south-east of Brackenbury Farm,https://historicengland.org.uk/listing/the-list/list-entry/1002001,TQ 07229 86789,507229,186789,NA,51.56978593855146,-0.4542306499950435
1002002,"The London Greyfriars, site of, Newgate Street, Farringdon",https://historicengland.org.uk/listing/the-list/list-entry/1002002,TQ 31973 81374,531973,181374,NA,51.51588143588568,-0.099429871584349655
1002003,"Benedictine nunnery of St Mary, Clerkenwell",https://historicengland.org.uk/listing/the-list/list-entry/1002003,TQ 31515 82246,531515,182197,NA,51.52338404752698,-0.10571971005982418
1002004,"St John the Baptist's Church gateway, Howley Road",https://historicengland.org.uk/listing/the-list/list-entry/1002004,TQ 31902 65321,531902,165321,NA,51.37163577403329,-0.10642940353350032
1002005,"Burial mound on Winns Common, Plumstead",https://historicengland.org.uk/listing/the-list/list-entry/1002005,TQ4570277902,545702,177902,NA,51.48131318607227,0.09686076208637354
1002006,Ickenham Manor Farm,https://historicengland.org.uk/listing/the-list/list-entry/1002006,TQ0821785386,508217,185377,NA,51.556906283650804,-0.44041509327383765
1002007,Grim's Ditch: section N of Blythwood House,https://historicengland.org.uk/listing/the-list/list-entry/1002007,TQ 11504 90567,511504,190567,NA,51.60291349439615,-0.3913752716187992
1002008,18th century garden feature at Hanworth Park,https://historicengland.org.uk/listing/the-list/list-entry/1002008,TQ 11257 71849,511257,171849,NA,51.43472645855029,-0.40084336106545165
1002009,Hampton Court Palace,https://historicengland.org.uk/listing/the-list/list-entry/1002009,TQ 15735 68485,515735,168485,NA,51.403595395328686,-0.3375486319332713
1002010,Chiswick House,https://historicengland.org.uk/listing/the-list/list-entry/1002010,TQ 21029 77523,521029,177523,NA,51.483719719921595,-0.2583899967508518
1002011,Morden Park Mound,https://historicengland.org.uk/listing/the-list/list-entry/1002011,TQ 24535 67481,524535,167481,NA,51.39271021692299,-0.21145315183323393
1002012,Croham Hurst round barrow,https://historicengland.org.uk/listing/the-list/list-entry/1002012,TQ 33808 63218,533808,163218,NA,51.35229138246613,-0.0798540096539811
1002013,"Regular aggregate field system, associated trackway and Anglo-Saxon barrow field on Farthing Downs, 490m east of Hooley Farm",https://historicengland.org.uk/listing/the-list/list-entry/1002013,TQ 29951 58053,529951,158053,NA,51.30676805798727,-0.13709222073802102
1002014,"Caesar's Camp, Wimbledon Common",https://historicengland.org.uk/listing/the-list/list-entry/1002014,TQ 22397 71088,522397,171088,NA,51.42559241666514,-0.24092317998771445
1002015,Coombe Conduit,https://historicengland.org.uk/listing/the-list/list-entry/1002015,"TQ 20512 69851, TQ 20493 69843",520493,169843,NA,51.414810605572505,-0.268718186854904
1002016,"Gallows Conduit, Coombe",https://historicengland.org.uk/listing/the-list/list-entry/1002016,"TQ 20045 70217, TQ 20034 70202",520045,170217,NA,51.41826687548273,-0.27503069101599453
1002017,"Dovecote, Beddington Park",https://historicengland.org.uk/listing/the-list/list-entry/1002017,TQ 29542 65373,529542,165373,NA,51.37264588858033,-0.14029583858894173
1002018,"Castle Hill earthwork, Chessington",https://historicengland.org.uk/listing/the-list/list-entry/1002018,TQ 19081 63433,519081,163433,NA,51.3574979119222,-0.29116008979041863
1002019,Kew Palace (remains of),https://historicengland.org.uk/listing/the-list/list-entry/1002019,TQ 18483 77475,518483,177475,NA,51.48382688333396,-0.29505471359087754
1002020,Windmill Bridge,https://historicengland.org.uk/listing/the-list/list-entry/1002020,TQ 14246 79655,514246,179655,NA,51.5042910890366,-0.35534149935731024
1002021,Clattern Bridge,https://historicengland.org.uk/listing/the-list/list-entry/1002021,TQ 17859 69092,517859,169092,NA,51.40861398557485,-0.3068260984955027
1002022,Camp on Keston Common,https://historicengland.org.uk/listing/the-list/list-entry/1002022,TQ 41782 64060,541782,164060,NA,51.3579257293711,0.03491552394971662
1002023,Holwood camp,https://historicengland.org.uk/listing/the-list/list-entry/1002023,TQ 42252 63855,542252,163855,NA,51.35596621921501,0.0415792596466464
1002024,"Iron Age settlement and Roman villa at Warbank, Keston",https://historicengland.org.uk/listing/the-list/list-entry/1002024,TQ 41422 63227,541422,163227,NA,51.35053000527358,0.029417784512173663
1002025,Lesnes Abbey,https://historicengland.org.uk/listing/the-list/list-entry/1002025,TQ 47900 78813,547900,178813,NA,51.48892881446025,0.1288720639679739
1002026,Ruxley old church,https://historicengland.org.uk/listing/the-list/list-entry/1002026,TQ 48528 70244,548528,170244,NA,51.41176943012887,0.13431651173497458
1002027,Goldsmiths' Hall,https://historicengland.org.uk/listing/the-list/list-entry/1002027,TQ 32220 81361,532220,181361,NA,51.51570690984901,-0.09587715186694469
1002028,Innholders' Hall,https://historicengland.org.uk/listing/the-list/list-entry/1002028,TQ 32526 80831,532526,180831,NA,51.51087245607472,-0.09166885880833538
1002029,Merchant Taylors' Hall,https://historicengland.org.uk/listing/the-list/list-entry/1002029,"TQ 32973 81189, TQ 32998 81172",532973,181189,NA,51.513984672526476,-0.08509646336911081
1002030,Painter Stainers' Hall,https://historicengland.org.uk/listing/the-list/list-entry/1002030,TQ 32293 80914,532293,180914,NA,51.511672884125815,-0.09499331816237841
1002031,Skinners' Hall,https://historicengland.org.uk/listing/the-list/list-entry/1002031,TQ 32540 80861,532540,180861,NA,51.51113876893566,-0.09145596935544192
1002032,Tallow Chandlers' Hall,https://historicengland.org.uk/listing/the-list/list-entry/1002032,TQ 32554 80888,532554,180888,NA,51.51137812201356,-0.09124420426063097
1002033,Vintners' Hall,https://historicengland.org.uk/listing/the-list/list-entry/1002033,TQ 32392 80808,532392,180808,NA,51.51069715162967,-0.09360730143578667
1002034,Watermen's Hall,https://historicengland.org.uk/listing/the-list/list-entry/1002034,TQ 33067 80692,533067,180692,NA,51.50949631330169,-0.08393003997029057
1002035,Roman wall in basement of 90 Gracechurch Street,https://historicengland.org.uk/listing/the-list/list-entry/1002035,TQ 33036 81079,533036,181079,NA,51.51298134936098,-0.08423057953275834
1002036,Royal Observatory Greenwich,https://historicengland.org.uk/listing/the-list/list-entry/1002036,TQ3890577314,538848,177338,NA,51.477967616899406,-0.0019989753457130863
1002037,Greenwich Hospital (RN College),https://historicengland.org.uk/listing/the-list/list-entry/1002037,TQ 38503 77929,538503,177929,NA,51.48336287014882,-0.006732140558940984
1002038,Kensington Palace,https://historicengland.org.uk/listing/the-list/list-entry/1002038,TQ 25867 80029,525867,180029,NA,51.50518613805802,-0.18785925679892015
1002039,Pottery kiln in Walmer Road,https://historicengland.org.uk/listing/the-list/list-entry/1002039,TQ 24219 80570,524219,180570,NA,51.51041242691403,-0.21140127019074406
1002040,Elsyng Palace,https://historicengland.org.uk/listing/the-list/list-entry/1002040,TQ3385798871,533857,198796,NA,51.671996322224594,-0.06565454044917332
1002041,"Brick reservoir 300yds (270m) SW of Gallows Conduit, Coombe",https://historicengland.org.uk/listing/the-list/list-entry/1002041,TQ 19857 69948,519857,169948,NA,51.415888970789176,-0.2778238552974507
1002042,Romano-British site 1000yds (910m) W of East Bedfont parish church,https://historicengland.org.uk/listing/the-list/list-entry/1002042,TQ 07560 73802,507560,173802,NA,51.45299372899231,-0.4534144662958531
1002043,"Part of a causewayed enclosure, 632m north-east of Mayfield Farm",https://historicengland.org.uk/listing/the-list/list-entry/1002043,TQ 08030 73664,508030,173664,NA,51.45166396882081,-0.4466951087639918
1002044,Grim's Ditch: section extending 1500yds (1370m) NE from Oxhey Lane,https://historicengland.org.uk/listing/the-list/list-entry/1002044,TQ 13900 92907,513900,192907,NA,51.62346547199985,-0.35603464755254227
1002045,Ruislip motte and bailey,https://historicengland.org.uk/listing/the-list/list-entry/1002045,TQ 08966 87907,508966,187907,NA,51.57950183699556,-0.42883180497661644
1002046,"Old Brew House, Bushy Park",https://historicengland.org.uk/listing/the-list/list-entry/1002046,TQ 14419 70499,514419,170499,NA,51.421963745817266,-0.3558101728797036
1002047,Earthworks at Old Park,https://historicengland.org.uk/listing/the-list/list-entry/1002047,TQ 32186 95681,532186,195681,NA,51.644399534795426,-0.09098155033743421
1002048,"London Wall: remains of Roman wall, bastions and city gate of Aldgate from 17 Bevis Marks to India Street",https://historicengland.org.uk/listing/the-list/list-entry/1002048,TQ3351281159,533536,181178,NA,51.51375315489987,-0.07699204368178017
1002049,"London Wall: remains of Roman wall and bastion, Goring Street",https://historicengland.org.uk/listing/the-list/list-entry/1002049,TQ 33378 81334,533378,181334,NA,51.515192319167156,-0.0792086481701326
1002050,London Wall: remains of Roman and medieval wall from W end of All Hallows Church to 38 Camomile Street,https://historicengland.org.uk/listing/the-list/list-entry/1002050,TQ 33123 81467,533123,181467,NA,51.516447600848096,-0.08283119384460805
1002051,"London Wall: remains of Roman wall and conduit and medieval postern, Bloomfield House to site of Moor Gate",https://historicengland.org.uk/listing/the-list/list-entry/1002051,TQ 32818 81529,532818,181529,NA,51.51707648378722,-0.08720085752853791
1002052,Remains of Roman and medieval wall and gateway W of boundary of Stationers' Hall to Ludgate Hill,https://historicengland.org.uk/listing/the-list/list-entry/1002052,TQ 31795 81155,531795,181155,NA,51.51395490741454,-0.1020754566163113
1002053,London Wall: remains of Roman fort wall and east gate under Aldermanbury,https://historicengland.org.uk/listing/the-list/list-entry/1002053,"TQ 32446 81474, TQ 32410 81395",532410,181395,NA,51.51596799007295,-0.0931277972893129
1002054,"Remains of Winchester Palace, Clink Street and waterfront",https://historicengland.org.uk/listing/the-list/list-entry/1002054,TQ 32577 80373,532577,180373,NA,51.50674470613721,-0.09110641828477511
1002055,Apothecaries' Hall,https://historicengland.org.uk/listing/the-list/list-entry/1002055,TQ 31730 81039,531730,181039,NA,51.51292761736379,-0.10305493540320292
1002056,Armourers' and Brasiers' Hall,https://historicengland.org.uk/listing/the-list/list-entry/1002056,TQ 32664 81539,532664,181539,NA,51.517202501458385,-0.08941523883090997
1002057,Dyers' Hall,https://historicengland.org.uk/listing/the-list/list-entry/1002057,TQ 32551 80846,532551,180846,NA,51.51100139409853,-0.09130318515894242
1002058,Fishmongers' Hall,https://historicengland.org.uk/listing/the-list/list-entry/1002058,TQ 32806 80669,532806,180669,NA,51.50935097184394,-0.08769738490984186
1002059,"Bell Barrow called Boadicea's Grave, 650m west of Millfield Cottage",https://historicengland.org.uk/listing/the-list/list-entry/1002059,TQ 27375 86507,527375,186507,NA,51.56306506297657,-0.16380218339845806
1002060,Queen's House,https://historicengland.org.uk/listing/the-list/list-entry/1002060,TQ 38714 77691,538714,177691,NA,51.481172531632225,-0.0037887911163318137
1002061,Tower of London,https://historicengland.org.uk/listing/the-list/list-entry/1002061,TQ 33585 80570,533585,180570,NA,51.50827786541243,-0.07651647958749523
1002062,London Wall: remains of medieval and Roman wall extending 75yds (68m) N from Trinity Place to railway,https://historicengland.org.uk/listing/the-list/list-entry/1002062,TQ 33603 80825,533603,180825,NA,51.510565140055704,-0.07616073647126793
1002063,"London Wall: section from underground railway to Tower Hill
GUARDIANSHIP",https://historicengland.org.uk/listing/the-list/list-entry/1002063,TQ 33609 80741,533609,180741,NA,51.50980886709527,-0.07610612982208738
1002064,Barnard's Inn Hall (Mercers' School),https://historicengland.org.uk/listing/the-list/list-entry/1002064,TQ 31250 81541,531250,181541,NA,51.51755046925499,-0.10978132588019426
1002065,Monument,https://historicengland.org.uk/listing/the-list/list-entry/1002065,TQ 32924 80760,532924,180760,NA,51.51014101667086,-0.08596378579192616
1002066,Inner Temple Hall Buttery,https://historicengland.org.uk/listing/the-list/list-entry/1002066,TQ3123581014,531220,181008,NA,51.51276760293308,-0.11041167598319157
1002067,London Wall: section bounding All Hallows Churchyard,https://historicengland.org.uk/listing/the-list/list-entry/1002067,TQ 33001 81492,533001,181492,NA,51.51670097070331,-0.08457896897718861
1002068,London Wall: section in Amen Court,https://historicengland.org.uk/listing/the-list/list-entry/1002068,TQ 31801 81240,531801,181240,NA,51.514717361902385,-0.1019572887910349
1002069,London Wall: remains of Roman wall and bastion (4a) at Crutched Friars,https://historicengland.org.uk/listing/the-list/list-entry/1002069,TQ3358081010,533580,181009,NA,51.51222406602006,-0.07642231759892387
1002070,"Motte in Castle Hill Wood, Huntley",https://historicengland.org.uk/listing/the-list/list-entry/1002070,SO 71522 21130,371522,221130,NA,51.88799252222178,-2.415188551424422
1002071,Deserted medieval village,https://historicengland.org.uk/listing/the-list/list-entry/1002071,"SO 90799 32219, SO 90648 32193",390648,232193,NA,51.98811026496354,-2.1375960753452974
1002072,Hempsted village cross,https://historicengland.org.uk/listing/the-list/list-entry/1002072,SO 81466 16948,381466,216948,NA,51.85081439475955,-2.2704796425554066
1002073,Lady's Well,https://historicengland.org.uk/listing/the-list/list-entry/1002073,SO 81447 17323,381447,217323,NA,51.85418531710262,-2.2707757327336693
1002074,Kingsholm Palace (site of),https://historicengland.org.uk/listing/the-list/list-entry/1002074,"SO 83409 19556, SO 83397 19502, SO 83404 19447",383397,219502,NA,51.873838136500915,-2.242569464765819
1002075,Eastgate and stretch of city wall,https://historicengland.org.uk/listing/the-list/list-entry/1002075,SO 83289 18392,383289,218392,NA,51.863855085588014,-2.2440840970047535
1002076,West Hill Romano-Celtic temple,https://historicengland.org.uk/listing/the-list/list-entry/1002076,"ST 78918 99786, ST 78965 99629",378918,199786,NA,51.696421405252224,-2.3064230413149374
1002077,Taddington medieval settlement,https://historicengland.org.uk/listing/the-list/list-entry/1002077,SP 08821 31211,408821,231211,NA,51.97929384962356,-1.8729813107270963
1002078,Lancaut deserted village,https://historicengland.org.uk/listing/the-list/list-entry/1002078,ST 53643 96432,353643,196432,NA,51.66474344375262,-2.671646900865125
1002079,Lydney Harbour,https://historicengland.org.uk/listing/the-list/list-entry/1002079,SO 64955 01371,364955,201371,NA,51.70997080688513,-2.5085989637337915
1002080,Gunns Mills furnace,https://historicengland.org.uk/listing/the-list/list-entry/1002080,SO 67516 15945,367516,215945,NA,51.84115641238579,-2.472903936227278
1002081,Wall N of Bishop's Palace,https://historicengland.org.uk/listing/the-list/list-entry/1002081,SO 83128 18914,383128,218914,NA,51.86854341283597,-2.2464478056131187
1002082,Tower of St Michael's Church,https://historicengland.org.uk/listing/the-list/list-entry/1002082,SO8317018540,383170,218541,NA,51.86519111607508,-2.2458195189648658
1002083,Battledown camp,https://historicengland.org.uk/listing/the-list/list-entry/1002083,SO 97029 21988,397029,221988,NA,51.89643146298564,-2.044582870812783
1002084,Earthwork on Cleeve Common,https://historicengland.org.uk/listing/the-list/list-entry/1002084,SO 98672 26282,398672,226282,NA,51.935044732111955,-2.020723828530968
1002085,Gretton Church (ruins of),https://historicengland.org.uk/listing/the-list/list-entry/1002085,SP 00879 30413,400879,230413,NA,51.97218692830212,-1.9886137048258943
1002086,"Camp on Langley Hill, one mile (1600m) NW of town",https://historicengland.org.uk/listing/the-list/list-entry/1002086,SP 00794 29022,400794,229022,NA,51.95968091096645,-1.989853807102225
1002087,Camp NE of Stowe,https://historicengland.org.uk/listing/the-list/list-entry/1002087,SO 56420 06446,356420,206446,NA,51.754998039892975,-2.6327540860286995
1002088,Broad Stone,https://historicengland.org.uk/listing/the-list/list-entry/1002088,ST 57763 97246,357763,197246,NA,51.67238750576453,-2.6121807457589195
1002089,"Roman site 150yds (140m) E of Palace Cottage, Boughspring",https://historicengland.org.uk/listing/the-list/list-entry/1002089,ST 55967 97370,355967,197370,NA,51.67336406832576,-2.6381663836055402
1002090,Collier's Wood Glass House,https://historicengland.org.uk/listing/the-list/list-entry/1002090,SO 83392 00557,383392,200557,NA,51.70350466103117,-2.241728876867349
1002091,Llanthony Secunda Priory,https://historicengland.org.uk/listing/the-list/list-entry/1002091,SO 82406 17968,382406,217968,NA,51.86001565110352,-2.256885236297699
1002092,Over earthwork,https://historicengland.org.uk/listing/the-list/list-entry/1002092,SO 81364 19763,381364,219763,NA,51.876120085455575,-2.2721132591229347
1002094,Tithe barn,https://historicengland.org.uk/listing/the-list/list-entry/1002094,SP 06032 32401,406032,232401,NA,51.99002949204979,-1.9135668445308853
1002095,Dyke camp,https://historicengland.org.uk/listing/the-list/list-entry/1002095,SO 83480 08574,383480,208574,NA,51.77558824339122,-2.240838786201047
1002096,Barton End Farm earthworks,https://historicengland.org.uk/listing/the-list/list-entry/1002096,ST 84673 97516,384673,197516,NA,51.67619943343374,-2.223057479705245
1002097,Gateway to Almonry,https://historicengland.org.uk/listing/the-list/list-entry/1002097,SO 80019 08439,380019,208439,NA,51.77426089837957,-2.2909931902972165
1002098,Ruardean Castle,https://historicengland.org.uk/listing/the-list/list-entry/1002098,SO 61986 17821,361986,217821,NA,51.85767236721754,-2.5533740480012295
1002099,Snowshill round barrows (SW of village),https://historicengland.org.uk/listing/the-list/list-entry/1002099,"SP 09097 33368, SP 09136 33347, SP 09230 33200",409097,233368,NA,51.99868236882083,-1.8689064330905965
1002100,"Holm Castle, site of",https://historicengland.org.uk/listing/the-list/list-entry/1002100,SO 89169 32108,389169,232108,NA,51.98731888028074,-2.159130836981678
1002101,Glevum Roman colonia,https://historicengland.org.uk/listing/the-list/list-entry/1002101,"SO 83235 18707, SO 83011 18644, SO 82982 18591, SO 83372 18584, SO 83030 18527, SO 83072 18526, SO 82913 18526, SO 83327 18484, SO 82861 18474, SO 83226 18353, SO 83066 18341, SO 83189 18327, SO 83105 18300, SO 83332 18511",383105,218300,NA,51.86302235062179,-2.246751605566143
1002102,Remains of Roman wall,https://historicengland.org.uk/listing/the-list/list-entry/1002102,"SO 83147 18229, SO 83017 18300, SO 83331 18452, SO 83216 18314",383017,218300,NA,51.863019660787316,-2.2480295135006596
1002103,St Oswald's Priory (St Catherine's Church),https://historicengland.org.uk/listing/the-list/list-entry/1002103,SO 83026 18996,383026,218996,NA,51.86927754387914,-2.2479332564595045
1002104,47 and 49 Eastgate Street,https://historicengland.org.uk/listing/the-list/list-entry/1002104,SO 83319 18432,383319,218432,NA,51.864215622389914,-2.2436503834232715
1002105,Painswick Roman villa (W of High Fold),https://historicengland.org.uk/listing/the-list/list-entry/1002105,SO 85775 10180,385775,210180,NA,51.79009124651553,-2.2076422534638573
1002106,Castle Godwyn,https://historicengland.org.uk/listing/the-list/list-entry/1002106,SO 87134 11580,387134,211580,NA,51.8027117755638,-2.187991466899271
1002107,"Randwick Hill long barrow, round barrows and dyke",https://historicengland.org.uk/listing/the-list/list-entry/1002107,"SO 82678 07005, SO 82735 07017, SO 82490 06901",382735,207017,NA,51.76156667521654,-2.251558607144738
1002108,Pen Hill dyke,https://historicengland.org.uk/listing/the-list/list-entry/1002108,SO 81833 02100,381833,202100,NA,51.717329212533606,-2.2643693979622874
1002109,Folly Wood long barrow,https://historicengland.org.uk/listing/the-list/list-entry/1002109,ST 77332 96893,377332,196893,NA,51.67034821040225,-2.3291807774319304
1002110,Rowden Wood long barrow,https://historicengland.org.uk/listing/the-list/list-entry/1002110,ST 77806 96918,377806,196918,NA,51.670592009848555,-2.322328384030643
1002111,Damery camp,https://historicengland.org.uk/listing/the-list/list-entry/1002111,ST 70748 94405,370748,194405,NA,51.64767308080678,-2.4241748367394496
1002112,Blackquarries Hill long barrow,https://historicengland.org.uk/listing/the-list/list-entry/1002112,ST 77517 93234,377517,193234,NA,51.63745732026733,-2.326269212208628
1002113,Symonds Hall long barrow,https://historicengland.org.uk/listing/the-list/list-entry/1002113,ST 79706 95972,379706,195972,NA,51.662158679492954,-2.294799116434838
1002114,Lechmore long barrow,https://historicengland.org.uk/listing/the-list/list-entry/1002114,ST 86046 97832,386046,197832,NA,51.67907670158026,-2.203214031140824
1002115,Tresham Farbarrow round barrows,https://historicengland.org.uk/listing/the-list/list-entry/1002115,ST 79301 90181,379301,190181,NA,51.61007619155024,-2.3003099536539784
1002116,"High Brotheridge camp, Buckholt",https://historicengland.org.uk/listing/the-list/list-entry/1002116,SO 89098 13991,389098,213991,NA,51.824431092308714,-2.159585482147927
1002117,Grey Friars' Church,https://historicengland.org.uk/listing/the-list/list-entry/1002117,SO 83141 18363,383141,218363,NA,51.86358986871142,-2.246231920741928
1002118,Infirmary Arcade,https://historicengland.org.uk/listing/the-list/list-entry/1002118,SO 83134 18869,383134,218869,NA,51.86813900893868,-2.2463584520398614
1002119,Little Cloister,https://historicengland.org.uk/listing/the-list/list-entry/1002119,SO 83126 18862,383126,218862,NA,51.86807582966118,-2.2464742943094036
1002120,St Mary's gateway,https://historicengland.org.uk/listing/the-list/list-entry/1002120,SO 83008 18865,383008,218865,NA,51.86809919589209,-2.2481881933072874
1002121,Mill Hill,https://historicengland.org.uk/listing/the-list/list-entry/1002121,TL 46658 39284,546658,239284,NA,52.032576771789095,0.13649517359123728
1002122,Cressing Temple,https://historicengland.org.uk/listing/the-list/list-entry/1002122,TL 79923 18677,579923,218634,NA,51.83732621255733,0.6101297288009779
1002123,Earthworks in and E of Pandole Wood,https://historicengland.org.uk/listing/the-list/list-entry/1002123,TQ 96507 99653,596507,199653,NA,51.66129321984896,0.8398187012282724
1002124,"Colville Hall Tudor and medieval remains, White Roding",https://historicengland.org.uk/listing/the-list/list-entry/1002124,TL 55380 13416,555380,213351,NA,51.79722597191303,0.25184733136670057
1002125,Round barrow W of Lawford Hall,https://historicengland.org.uk/listing/the-list/list-entry/1002125,TM0818131876,608181,231876,NA,51.946408685247064,1.0276984249867562
1002126,Wickham Bishops timber trestle railway viaduct,https://historicengland.org.uk/listing/the-list/list-entry/1002126,TL 82411 11760,582411,211760,NA,51.774781598125145,0.6425865144341946
1002127,Pumping station,https://historicengland.org.uk/listing/the-list/list-entry/1002127,TL 83583 08989,583583,208989,NA,51.74951136614562,0.6580918624641051
1002128,The Camp long barrow,https://historicengland.org.uk/listing/the-list/list-entry/1002128,SO 91372 09070,391372,209070,NA,51.78022671376064,-2.126467068620493
1002129,Coberley long barrow,https://historicengland.org.uk/listing/the-list/list-entry/1002129,SO 95530 15637,395530,215637,NA,51.839319997994394,-2.0662828811071376
1002130,The Long Stone,https://historicengland.org.uk/listing/the-list/list-entry/1002130,ST 88346 99917,388346,199917,NA,51.697876123041965,-2.170019827098792
1002131,"The Toots long barrow, Selsley Common",https://historicengland.org.uk/listing/the-list/list-entry/1002131,SO 82706 03103,382706,203103,NA,51.72637499835468,-2.251782892700807
1002132,Cleeve Hill camp near Cheltenham,https://historicengland.org.uk/listing/the-list/list-entry/1002132,SO 98500 25477,398500,225477,NA,51.92780666680154,-2.0232217993687063
1002133,Brackenbury camp,https://historicengland.org.uk/listing/the-list/list-entry/1002133,ST 74726 94864,374726,194864,NA,51.65199367952107,-2.3667157282361155
1002134,"Crop mark complex, Orsett",https://historicengland.org.uk/listing/the-list/list-entry/1002134,"TQ 62954 81111, TQ 63121 81258, TQ 62684 81178, TQ 62349 81000, TQ 62561 81006",562954,181111,NA,51.505439933410784,0.3465748616530191
1002135,Ring ditches SW of Reed Island,https://historicengland.org.uk/listing/the-list/list-entry/1002135,TM 08607 32726,608607,232726,NA,51.95388067273843,1.0344029465472364
1002136,Complex of cropmarks including barrows E of Hoemill Barns,https://historicengland.org.uk/listing/the-list/list-entry/1002136,TL 81328 07976,581328,207976,NA,51.74114676091036,0.6249341189956943
1002137,Earthwork in Brinkley Grove,https://historicengland.org.uk/listing/the-list/list-entry/1002137,TM 00409 27975,600409,227975,NA,51.91423284131911,0.912503997990963
1002138,Well house and donkey wheel at Gosfield Hall,https://historicengland.org.uk/listing/the-list/list-entry/1002138,TL 77482 29790,577482,229790,NA,51.93830716702139,0.5804732388079874
1002139,Medieval tile kiln N of Eves Corner,https://historicengland.org.uk/listing/the-list/list-entry/1002139,TL 78416 05302,578416,205302,NA,51.718062863192344,0.5814343275384231
1002140,Settlement site at Ash Tree Corner,https://historicengland.org.uk/listing/the-list/list-entry/1002140,TL 70498 12711,570498,212711,NA,51.78707677503431,0.47055729660954176
1002141,Monument in Colne Park,https://historicengland.org.uk/listing/the-list/list-entry/1002141,TL 87166 30501,587166,230501,NA,51.94152233895718,0.7215685472279462
1002142,Site of Old St Mary's Church,https://historicengland.org.uk/listing/the-list/list-entry/1002142,TM 12876 31021,612876,231021,NA,51.93695758006052,1.09537697804383
1002143,Medieval tile kilns S of Church End,https://historicengland.org.uk/listing/the-list/list-entry/1002143,TL 66401 23222,566401,223222,NA,51.882729203990806,0.416265120298327
1002144,Remains of St Mary's Church,https://historicengland.org.uk/listing/the-list/list-entry/1002144,TL 95035 20777,595035,220777,NA,51.85150195996937,0.8304063616964761
1002145,Crop mark site SW of Oldmoor,https://historicengland.org.uk/listing/the-list/list-entry/1002145,"TL 96573 00530, TL 96723 00411, TL 96461 00299",596573,200530,NA,51.66914574798929,0.8412646415847472
1002146,Crop mark site S of Ardleigh,https://historicengland.org.uk/listing/the-list/list-entry/1002146,"TM 05834 28780, TM 05657 28361",605834,228780,NA,51.91948379280319,0.9917486902618077
1002147,"Romano-British site N of Pound Wood, Thundersley",https://historicengland.org.uk/listing/the-list/list-entry/1002147,TQ 81824 88941,581824,188941,NA,51.570018277318724,0.6222192319124352
1002148,Hatfield Broad Oak Priory,https://historicengland.org.uk/listing/the-list/list-entry/1002148,TL 54695 16814,554695,216814,NA,51.82852759481693,0.24346687496532224
1002149,Romano-British burial site on Foulness Island,https://historicengland.org.uk/listing/the-list/list-entry/1002149,TQ 97950 90550,597950,190550,NA,51.57904152813163,0.8555156578536889
1002150,Hatfield Priory,https://historicengland.org.uk/listing/the-list/list-entry/1002150,TL 79742 10987,579742,210987,NA,51.76870143321003,0.6035438787568393
1002151,Harlowbury deserted medieval village,https://historicengland.org.uk/listing/the-list/list-entry/1002151,TL 47742 11970,547742,211970,NA,51.78688615029962,0.14058240306446468
1002152,Tumulus NW of East Donyland Hall,https://historicengland.org.uk/listing/the-list/list-entry/1002152,TM 02588 21172,602588,221172,NA,51.85236095066263,0.9401505480075193
1002153,SE corner of Roman town in Easthill House Gardens,https://historicengland.org.uk/listing/the-list/list-entry/1002153,TM 00117 25161,600117,225161,NA,51.88907010598623,0.9066318762793688
1002154,Mistley Towers,https://historicengland.org.uk/listing/the-list/list-entry/1002154,TM 11595 31976,611595,231976,NA,51.94601952435521,1.0773580450309217
1002155,Gatehouse and moat of South Ockenden Old Hall,https://historicengland.org.uk/listing/the-list/list-entry/1002155,TQ 60377 83151,560377,183151,NA,51.52450412876152,0.31040355610615744
1002156,Dene holes in Hangman's Wood,https://historicengland.org.uk/listing/the-list/list-entry/1002156,"TQ 63115 79301, TQ 63096 79232",563115,179301,NA,51.489132650031785,0.3480565558999695
1002157,Settlement site NNE of Lawford House,https://historicengland.org.uk/listing/the-list/list-entry/1002157,TM 08870 30898,608870,230898,NA,51.93737001826521,1.0371148905366372
1002158,Obelisk 325m NW of Cobbin Pond,https://historicengland.org.uk/listing/the-list/list-entry/1002158,TL 40566 02027,540566,202027,NA,51.699391486315875,0.032602084844431695
1002159,The College,https://historicengland.org.uk/listing/the-list/list-entry/1002159,TL 66351 14251,566351,214251,NA,51.80215802438463,0.4112282847526205
1002160,"St Helen's Chapel, Bonhunt",https://historicengland.org.uk/listing/the-list/list-entry/1002160,TL 51143 33493,551143,233493,NA,51.97934708602555,0.19927136924800462
1002161,Site of Waltham Hall,https://historicengland.org.uk/listing/the-list/list-entry/1002161,TL 56717 24318,556717,224318,NA,51.89537909561224,0.27618555522151117
1002162,Moat at Basildon Hall,https://historicengland.org.uk/listing/the-list/list-entry/1002162,TQ 71196 88455,571196,188455,NA,51.568977089694165,0.4687847849192864
1002163,Audley End Mansion,https://historicengland.org.uk/listing/the-list/list-entry/1002163,TL 52526 38229,552526,238229,NA,52.02151743998024,0.22149788986858723
1002164,Tilty Abbey,https://historicengland.org.uk/listing/the-list/list-entry/1002164,TL 60041 26620,560041,226620,NA,51.91511518697381,0.3255194015709505
1002165,"Lady Portsmouth's Column (Obelisk), Audley End",https://historicengland.org.uk/listing/the-list/list-entry/1002165,TL 52671 38942,552671,238942,NA,52.02788310011581,0.2239271953076283
1002166,Barn near King John's Palace,https://historicengland.org.uk/listing/the-list/list-entry/1002166,TL 67667 06675,567667,206675,NA,51.733710340517135,0.42664248266397686
1002167,"The Temple, Temple Hill, Warlies Park",https://historicengland.org.uk/listing/the-list/list-entry/1002167,TL 41686 01332,541686,201332,NA,51.69286525463635,0.04851540971683229
1002168,Portingbury Hills,https://historicengland.org.uk/listing/the-list/list-entry/1002168,TL 53333 20422,553333,220422,NA,51.861317569694414,0.2253165868787141
1002169,Stansted windmill,https://historicengland.org.uk/listing/the-list/list-entry/1002169,TL 50976 24741,550976,224741,NA,51.90076286615176,0.19300304419267753
1002170,Moated site in Fortification Wood,https://historicengland.org.uk/listing/the-list/list-entry/1002170,TQ 54962 98317,554962,198317,NA,51.662273103603916,0.23910458176092178
1002171,Roman Fort at Hadleigh,https://historicengland.org.uk/listing/the-list/list-entry/1002171,TQ8070986867,580709,186867,NA,51.551747638434264,0.6050831759689446
1002172,Mound E of Basin Road,https://historicengland.org.uk/listing/the-list/list-entry/1002172,TL 87165 07514,587165,207514,NA,51.73508012535305,0.709128002382697
1002173,Site of pre-Roman settlement,https://historicengland.org.uk/listing/the-list/list-entry/1002173,TL 98429 25382,598429,225382,NA,51.891657485957516,0.8822630720860776
1002174,Barn at Ingatestone Hall,https://historicengland.org.uk/listing/the-list/list-entry/1002174,TQ 65307 98634,565307,198634,NA,51.66217576011744,0.3886909094608753
1002175,Chapel at Harlowbury,https://historicengland.org.uk/listing/the-list/list-entry/1002175,TL 47729 12061,547729,212061,NA,51.78770719154963,0.14043277868650325
1002176,Bicknacre Priory,https://historicengland.org.uk/listing/the-list/list-entry/1002176,TL 78582 02724,578582,202724,NA,51.69485447741563,0.5825152528105675
1002177,Moulsham Bridge,https://historicengland.org.uk/listing/the-list/list-entry/1002177,TL 70994 06544,570994,206544,NA,51.73152945799968,0.4747096341719988
1002178,Town ditch,https://historicengland.org.uk/listing/the-list/list-entry/1002178,"TM 00048 25604, TM 00177 25499",600048,225604,NA,51.89307267719248,0.9058873196884073
1002179,Battle (or Repell) Ditches,https://historicengland.org.uk/listing/the-list/list-entry/1002179,TL 53579 38136,553579,238136,NA,52.020391721238724,0.23678998875749058
1002180,Gosbecks Iron Age and Romano-British site,https://historicengland.org.uk/listing/the-list/list-entry/1002180,TL9669821755,596503,222157,NA,51.86337962247607,0.8524766599080349
1002181,"Waltham Abbey, including gatehouse and Stoney Bridge",https://historicengland.org.uk/listing/the-list/list-entry/1002181,TL 38178 00822,538178,200822,NA,51.689156198925296,-0.00240649391532339
1002182,Harlow Roman temple,https://historicengland.org.uk/listing/the-list/list-entry/1002182,TL 46800 12289,546800,212289,NA,51.790000045028215,0.12707018479393092
1002183,"Netteswellbury Barn, Netteswell",https://historicengland.org.uk/listing/the-list/list-entry/1002183,TL 45566 09355,545566,209355,NA,51.76396038823678,0.10796232234546195
1002184,Little Parndon moated site,https://historicengland.org.uk/listing/the-list/list-entry/1002184,TL 44041 11128,544041,211128,NA,51.78028495132414,0.08661449144219176
1002185,Site of Parndon Hall,https://historicengland.org.uk/listing/the-list/list-entry/1002185,TL 43941 11027,543941,211027,NA,51.77940316576001,0.08512408485687271
1002186,Moated site and fishponds at Botelers,https://historicengland.org.uk/listing/the-list/list-entry/1002186,TQ 71592 89617,571592,189617,NA,51.57929501472679,0.47506004811419655
1002187,Balkerne Gate,https://historicengland.org.uk/listing/the-list/list-entry/1002187,TL 99238 25191,599238,225191,NA,51.88965408203182,0.893893464338077
1002188,Bourne Mill,https://historicengland.org.uk/listing/the-list/list-entry/1002188,TM 00430 23825,600430,223825,NA,51.876961453137326,0.9103985789406936
1002189,Ongar Castle,https://historicengland.org.uk/listing/the-list/list-entry/1002189,"TL 55363 03106, TL 55367 02942",555363,203106,NA,51.7051881428914,0.2470272574447091
1002190,Wallbury camp,https://historicengland.org.uk/listing/the-list/list-entry/1002190,TL 49280 17864,549280,217864,NA,51.839433285054454,0.16540080557779394
1002191,Pleshey Castle and town enclosure,https://historicengland.org.uk/listing/the-list/list-entry/1002191,"TL 66557 14753, TL 66511 14602, TL 66428 14552, TL 66454 14518, TL 66359 14487, TL 66592 14449, TL 66395 14360",566592,214449,NA,51.803864973931375,0.4148152938420486
1002192,Nether Hall,https://historicengland.org.uk/listing/the-list/list-entry/1002192,TL 39767 08294,539767,208294,NA,51.755903030917146,0.023561695610840604
1002193,Remains of St Osyth's Priory including the ruinous sections of a mid-C16 mansion,https://historicengland.org.uk/listing/the-list/list-entry/1002193,TM1213615689,612136,215724,NA,51.79990502018551,1.0752401651581458
1002194,The Maze,https://historicengland.org.uk/listing/the-list/list-entry/1002194,TL 54291 38547,554291,238547,NA,52.02388667463808,0.2473429020292026
1002195,Roman round building,https://historicengland.org.uk/listing/the-list/list-entry/1002195,TM 01090 12510,601090,212510,NA,51.77512323459184,0.9134066833017704
1002196,"Bishop Bonner's Palace, Orsett",https://historicengland.org.uk/listing/the-list/list-entry/1002196,TQ 64124 82259,564124,182259,NA,51.51541503859668,0.3639516890484875
1002197,Purleigh moated mound,https://historicengland.org.uk/listing/the-list/list-entry/1002197,TL 84071 01713,584071,201713,NA,51.68400263593793,0.6613121420661071
1002198,Rayleigh Castle,https://historicengland.org.uk/listing/the-list/list-entry/1002198,TQ8051490920,580514,190921,NA,51.588223314070305,0.6043546914670368
1002199,"Earthworks near church, West Tilbury",https://historicengland.org.uk/listing/the-list/list-entry/1002199,TQ 66032 77669,566032,177669,NA,51.47362306398424,0.3892664200428358
1002200,Rochford Hall (uninhabited portions),https://historicengland.org.uk/listing/the-list/list-entry/1002200,TQ 87027 90348,587027,190348,NA,51.5809546774246,0.6979557041165909
1002201,"Napoleonic Barracks 480m south-west of Foxhole Farm, Cuckmere Haven",https://historicengland.org.uk/listing/the-list/list-entry/1002201,TV5202497956,552024,97956,NA,50.761288755274784,0.15415298941201014
1002202,"Stumbletts Furnace, 360m south-east of Twyford House",https://historicengland.org.uk/listing/the-list/list-entry/1002202,TQ 39939 30631,539939,130631,NA,51.057975190419015,-0.004564225157208616
1002203,Isfield pound,https://historicengland.org.uk/listing/the-list/list-entry/1002203,TQ 44883 18283,544883,118283,NA,50.945786054367744,0.06101068593704864
1002204,Moat at Old Place,https://historicengland.org.uk/listing/the-list/list-entry/1002204,TQ 88126 16769,588126,116769,NA,50.91970996959727,0.6751510769677144
1002205,"Highdole Hill, Romano-British settlement",https://historicengland.org.uk/listing/the-list/list-entry/1002205,TQ 39800 04371,539800,104371,NA,50.822012744807274,-0.016614392037446586
1002206,Medieval enclosure W of Newmarket Plantation,https://historicengland.org.uk/listing/the-list/list-entry/1002206,TQ 36533 08000,536533,108000,NA,50.8554066832669,-0.061616643361254726
1002207,Field system on Bullock Down,https://historicengland.org.uk/listing/the-list/list-entry/1002207,TV 58293 96335,558293,96335,NA,50.7450480907812,0.2422724478628726
1002208,"Crowborough Forge, 160m south-east of Forest Lodge Cottage",https://historicengland.org.uk/listing/the-list/list-entry/1002208,TQ 49893 32596,549893,132596,NA,51.073122565301986,0.13818227247649234
1002209,Woolbridge furnace,https://historicengland.org.uk/listing/the-list/list-entry/1002209,TQ 57133 26545,557133,126545,NA,51.016817626434516,0.23881945258299825
1002210,Late medieval kiln site E of Park Wood,https://historicengland.org.uk/listing/the-list/list-entry/1002210,TQ 81878 13234,581878,113234,NA,50.8899559337908,0.5845975134058434
1002211,Deserted medieval settlement N of Church Farm,https://historicengland.org.uk/listing/the-list/list-entry/1002211,TQ 52055 05252,552055,105252,NA,50.82684383948183,0.15760956983643548
1002212,Ring ditch and rectangular enclosure SE of Mockbeggar,https://historicengland.org.uk/listing/the-list/list-entry/1002212,TQ 92100 22631,592100,122631,NA,50.971054711634125,0.7347116834575455
1002213,Saxonbury Anglo-Saxon cemetery,https://historicengland.org.uk/listing/the-list/list-entry/1002213,TQ4066809488,540728,109495,NA,50.86783757531993,-0.001481145677380636
1002214,"Royal Military Canal, Coastguard Cottages to Wickham Cliff",https://historicengland.org.uk/listing/the-list/list-entry/1002214,TQ 89462 14795,589462,114795,NA,50.901541886871954,0.6931123277700318
1002215,"Royal Military Canal, Wickham Cliff to Strand Bridge, Winchelsea",https://historicengland.org.uk/listing/the-list/list-entry/1002215,TQ 90209 16290,590209,116290,NA,50.914725112158344,0.7045018599680221
1002216,"Royal Military Canal, Iden Lock to Kent Ditch",https://historicengland.org.uk/listing/the-list/list-entry/1002216,TQ 93872 24886,593872,124886,NA,50.99071548042441,0.761120981667332
1002217,Colchester Castle and the Temple of Claudius,https://historicengland.org.uk/listing/the-list/list-entry/1002217,TL9990925391,599909,225390,NA,51.891200935867516,0.9037460936776827
1002218,Hedingham Castle,https://historicengland.org.uk/listing/the-list/list-entry/1002218,TL7869835847,578698,235865,NA,51.99248086287744,0.601301707405848
1002219,Ashburnam iron furnace site,https://historicengland.org.uk/listing/the-list/list-entry/1002219,TQ 68547 17084,568547,117084,NA,50.928586946818044,0.39701617436693165
1002220,Riverhall blast furnace,https://historicengland.org.uk/listing/the-list/list-entry/1002220,TQ 60127 33571,560127,133571,NA,51.07912115597199,0.2845726591534283
1002221,Iron plat furnace,https://historicengland.org.uk/listing/the-list/list-entry/1002221,TQ 49854 24182,549854,124182,NA,50.997525131353555,0.1341491387208262
1002222,King's Standing,https://historicengland.org.uk/listing/the-list/list-entry/1002222,TQ 47422 30077,547422,130077,NA,51.051126151946875,0.10191148932594256
1002223,"Pippingford furnace and ironworks, 885m south-west of New Lodge Farm",https://historicengland.org.uk/listing/the-list/list-entry/1002223,TQ 44997 31562,544997,131562,NA,51.065087588041806,0.06793255023452703
1002224,Little forge,https://historicengland.org.uk/listing/the-list/list-entry/1002224,TQ 51333 25997,551333,125997,NA,51.013447741177465,0.15596614798960887
1002225,Pillow mound and earthwork in Northbank Wood,https://historicengland.org.uk/listing/the-list/list-entry/1002225,TQ 43800 32070,543800,132070,NA,51.06995349439082,0.05106326291838721
1002226,"Cotchford Forge, 160m SSE of Ryecroft Farm",https://historicengland.org.uk/listing/the-list/list-entry/1002226,TQ 47018 33842,547018,133842,NA,51.08506230343263,0.09768090455103734
1002227,Newbridge blast furnace,https://historicengland.org.uk/listing/the-list/list-entry/1002227,"TQ 45549 32469, TQ 45621 32511",545549,132469,NA,51.0730985233423,0.07616955920313931
1002228,"Romano-British bloomery in Pippingford Park, 775m north-east of Pippingford House",https://historicengland.org.uk/listing/the-list/list-entry/1002228,TQ 44590 31249,544590,131249,NA,51.06237744046721,0.06200312927035135
1002229,Mayfield iron furnace,https://historicengland.org.uk/listing/the-list/list-entry/1002229,"TQ 58843 28420, TQ 59283 28139",559283,128139,NA,51.030548922520865,0.2701454152914302
1002230,Iron minepits in Tugmore Shaw,https://historicengland.org.uk/listing/the-list/list-entry/1002230,TQ 45848 37208,545848,137208,NA,51.11560806013176,0.08234677113059045
1002231,"Far Blacklands Romano-British Iron Bloomery, 580m NNW of Great Cansiron Farm",https://historicengland.org.uk/listing/the-list/list-entry/1002231,TQ 44800 38283,544800,138283,NA,51.12553376467005,0.0678158386932837
1002232,Settlement site 1/2 mile (800m) NNW of King's Standing,https://historicengland.org.uk/listing/the-list/list-entry/1002232,TQ 47403 31314,547403,131314,NA,51.062246822388076,0.10214401720876644
1002233,Pounsley iron furnace,https://historicengland.org.uk/listing/the-list/list-entry/1002233,TQ 52899 21908,552899,121908,NA,50.97629117279217,0.1765532095338066
1002234,Pillow mounds on Ashdown Forest,https://historicengland.org.uk/listing/the-list/list-entry/1002234,"TQ 45237 31223, TQ 45257 31109, TQ 45255 31053, TQ 45380 31005, TQ 45276 30951, TQ 45369 30922, TQ 45511 30814",545237,131223,NA,51.061980629388216,0.07121930657459428
1002235,Romano-British site S of Bodiam Bridge,https://historicengland.org.uk/listing/the-list/list-entry/1002235,"TQ 78417 25182, TQ 78291 25156",578291,125156,NA,50.99817467661755,0.5394821517988886
1002236,Medieval settlement site in Buxted Park,https://historicengland.org.uk/listing/the-list/list-entry/1002236,TQ 48558 23110,548558,123110,NA,50.988227773777105,0.11525568522760658
1002237,Dewpond,https://historicengland.org.uk/listing/the-list/list-entry/1002237,TV 55116 98205,555116,98205,NA,50.76270866672542,0.19806463972463015
1002238,"Hendall Furnace, 390m north-west of Hendall Manor Farmhouse",https://historicengland.org.uk/listing/the-list/list-entry/1002238,TQ 47095 25901,547095,125901,NA,51.013683704416444,0.09555593075423427
1002239,Oldlands furnace,https://historicengland.org.uk/listing/the-list/list-entry/1002239,TQ 47651 27103,547651,127103,NA,51.02434269305631,0.10396528410525374
1002240,"Deserted medieval village of Northeye, 885m south-west of Old Road Farm",https://historicengland.org.uk/listing/the-list/list-entry/1002240,TQ 68226 07039,568226,107039,NA,50.83843039565912,0.3878329767993518
1002241,Medieval earthworks at Balmer,https://historicengland.org.uk/listing/the-list/list-entry/1002241,TQ 35877 10140,535877,110140,NA,50.874793953121824,-0.07013688215747207
1002242,Newhaven military fort and lunette battery,https://historicengland.org.uk/listing/the-list/list-entry/1002242,"TQ 44902 00198, TQ 45025 00096",544902,100198,NA,50.783257838343424,0.05412494207734212
1002243,Remains of chapel at Otham Court,https://historicengland.org.uk/listing/the-list/list-entry/1002243,TQ 58754 05711,558754,105711,NA,50.82917152887766,0.25284814256960225
1002244,"Medieval farmstead and regular aggregate field system, 805m west of Crapham Barn",https://historicengland.org.uk/listing/the-list/list-entry/1002244,"TV 56536 97869, TV 57427 97811",556536,97869,NA,50.75930839449273,0.21804038224142563
1002245,Medieval town of Winchelsea,https://historicengland.org.uk/listing/the-list/list-entry/1002245,"TQ 90390 16815, TQ 90168 17485, TQ 90170 16681, TQ 90331 17032, TQ 90286 16752, TQ 90189 16992, TQ 90642 17274",590390,116815,NA,50.919381196168594,0.7073474421057199
1002246,Holy Trinity Priory,https://historicengland.org.uk/listing/the-list/list-entry/1002246,TQ 64141 18101,564141,118101,NA,50.938994096205306,0.3348337841587864
1002247,Three round barrows SW of Loose Plantation,https://historicengland.org.uk/listing/the-list/list-entry/1002247,"TQ 49162 05297, TQ 49119 05340, TQ 49285 05175",549285,105175,NA,50.82687219701922,0.1182769168128534
1002248,Long barrow 200yds (180m) W of Winton chalk pit,https://historicengland.org.uk/listing/the-list/list-entry/1002248,TQ 50989 03586,550989,103586,NA,50.81215155274004,0.1417999703464581
1002249,"Lewes Town Wall, section called The Green Wall",https://historicengland.org.uk/listing/the-list/list-entry/1002249,TQ 41744 10389,541744,110389,NA,50.8756238418149,0.013293936695641032
1002250,Romano-British iron working site in Beauport Park,https://historicengland.org.uk/listing/the-list/list-entry/1002250,TQ 78692 14529,578692,114529,NA,50.902583233878914,0.5399795654085002
1002251,"Iron furnace site, W of Beckington Bridge",https://historicengland.org.uk/listing/the-list/list-entry/1002251,TQ 60023 18595,560023,118595,NA,50.94458936631654,0.2764895336319542
1002252,Panningridge iron furnace site,https://historicengland.org.uk/listing/the-list/list-entry/1002252,TQ 68738 17518,568738,117518,NA,50.93243040468881,0.39993225750460326
1002253,Two round barrows SE of Berwick chalk pit,https://historicengland.org.uk/listing/the-list/list-entry/1002253,TQ5062504034,550631,104027,NA,50.81620762706775,0.13690310541976594
1002254,Round barrow S of Ditchling Beacon,https://historicengland.org.uk/listing/the-list/list-entry/1002254,TQ3302512474,533025,112474,NA,50.89643370652597,-0.10980000573687232
1002255,Two round barrows 200yds (180m) W of Winton chalk pit,https://historicengland.org.uk/listing/the-list/list-entry/1002255,"TQ 50872 03706, TQ 50806 03817",550806,103817,NA,50.81427501091447,0.1392992181201968
1002256,"Bowl barrow, 870m NNE of Blackstone Barn",https://historicengland.org.uk/listing/the-list/list-entry/1002256,TQ 48866 02720,548866,102720,NA,50.80491836400438,0.1113367682941624
1002257,Field system,https://historicengland.org.uk/listing/the-list/list-entry/1002257,TQ 56915 01709,556915,101709,NA,50.7937116050444,0.22504685062768043
1002258,Three round barrows E of Caburn Bottom,https://historicengland.org.uk/listing/the-list/list-entry/1002258,"TQ 44574 09281, TQ 44741 09595, TQ 44761 09586",544574,109281,NA,50.864966223094434,0.05305296032968642
1002259,The Holt round barrow,https://historicengland.org.uk/listing/the-list/list-entry/1002259,TQ 55069 04014,555069,104014,NA,50.814920535352165,0.19984804147131865
1002260,Round barrow SW of Winchester's Pond,https://historicengland.org.uk/listing/the-list/list-entry/1002260,TQ5372001781,553720,101781,NA,50.79521405801346,0.17977956018328264
1002261,Chapel of St James' Hospital,https://historicengland.org.uk/listing/the-list/list-entry/1002261,TQ 41300 09756,541300,109756,NA,50.870043755969284,0.006742974044458606
1002262,Linear earthwork S of village,https://historicengland.org.uk/listing/the-list/list-entry/1002262,TQ3584807520,535848,107520,NA,50.851253909583264,-0.0715206194958046
1002263,Round barrow NW of Mill Hill,https://historicengland.org.uk/listing/the-list/list-entry/1002263,TQ4037105710,540371,105710,NA,50.83390840543482,-0.008000890697104055
1002264,Round barrow S of Breaky Bottom,https://historicengland.org.uk/listing/the-list/list-entry/1002264,TQ 40153 04908,540153,104908,NA,50.826753551697344,-0.011400989888541808
1002265,Heathy Brow round barrows,https://historicengland.org.uk/listing/the-list/list-entry/1002265,TQ3962505234,539625,105234,NA,50.829810823821276,-0.018768983937232003
1002266,Fore Hill round barrow,https://historicengland.org.uk/listing/the-list/list-entry/1002266,TQ4611504246,546115,104246,NA,50.81933169611854,0.07292920437025792
1002267,"Firle Beacon round barrow and two adjacent round barrows, West Firle",https://historicengland.org.uk/listing/the-list/list-entry/1002267,"TQ4854405920, TQ4853805868, TQ4866905816",548544,105920,NA,50.8337575130815,0.1080649515630885
